도서관명,시도명,시군구명,도서관유형,휴관일,평일운영시작시각,평일운영종료시각,토요일운영시작시각,토요일운영종료시각,공휴일운영시작시각,공휴일운영종료시각,열람좌석수,자료수(도서),자료수(연속간행물),자료수(비도서),대출가능권수,대출가능일수,소재지도로명주소,운영기관명,도서관전화번호,부지면적,건물면적,홈페이지주소,위도,경도,데이터기준일자,제공기관코드,제공기관명
이석영뉴미디어도서관,경기도,남양주시,공공도서관,둘째·넷째 금요일+1월 1일+설날·추석 연휴(대체공휴일 포함),09:00,22:00,09:00,18:00,09:00,18:00,615,48913,111,643,20,14,경기도 남양주시 화도읍 맷돌로 84,사단법인 문화현상,031-595-8390,1843.0,4877.0,http://lib.nyj.go.kr/lsy,37.65815984,127.2995319,2023-04-30,3990000,경기도 남양주시
원덕도서관,강원도,삼척시,공공도서관,토요일+일요일+법정공휴일,09:00,18:00,00:00,00:00,00:00,00:00,4,78766,50,160,10,30,강원도 삼척시 원덕읍 삼척로 446-14,강원도 삼척시청,033-572-4819,766.0,364.0,,37.17685442,129.3354843,2023-06-20,4241000,강원특별자치도 삼척시
가평군 한석봉도서관,경기도,가평군,공공도서관,1월 1일+설 연휴+추석연휴,07:00,23:59,07:00,23:59,07:00,23:59,119,140341,44,5536,7,14,경기도 가평군 가평읍 문화로 187,경기도 가평군,031-580-4041,7485.0,3602.0,www.gaplib.go.kr,37.829691,127.506433,2023-06-21,4160000,경기도 가평군
가평군 설악도서관,경기도,가평군,공공도서관,1월 1일+설 연휴+추석연휴,07:00,23:59,07:00,23:59,07:00,23:59,42,77707,43,1581,7,14,경기도 가평군 설악면 자잠로 65 가평설악도서관,경기도 가평군,031-580-4313,3693.0,1470.0,www.gaplib.go.kr,37.683315,127.491015,2023-06-21,4160000,경기도 가평군
가평군 청평도서관,경기도,가평군,공공도서관,1월 1일+설 연휴+추석연휴,07:00,23:59,07:00,23:59,07:00,23:59,110,81120,39,1546,7,14,경기도 가평군 청평면 은고개로 31,경기도 가평군,031-580-4332,4500.0,2486.0,www.gaplib.go.kr,37.739591,127.42423,2023-06-21,4160000,경기도 가평군
가평군 조종도서관,경기도,가평군,공공도서관,1월 1일+설 연휴+추석연휴,07:00,23:59,07:00,23:59,07:00,23:59,72,77327,39,1972,7,14,경기도 가평군 조종면 조종희망로 26번길22,경기도 가평군,031-580-4301,2692.0,1502.0,www.gaplib.go.kr,37.81829,127.352981,2023-06-21,4160000,경기도 가평군
구암도서관,대전광역시,유성구,공공도서관,일+공휴일,08:00,22:00,08:00,22:00,08:00,22:00,92,60080,52,0,5,14,대전광역시 유성구 유성대로626번길 57(구암동),대전광역시 유성구청,042-611-6630,2486.0,582.0,http://lib.yuseong.go.kr/,36.34926753,127.330255,2023-06-13,3670000,대전광역시 유성구
노은도서관,대전광역시,유성구,공공도서관,월+공휴일,08:00,22:00,08:00,22:00,08:00,22:00,212,90102,58,2199,5,14,대전광역시 유성구 원신흥남로 59 (원신흥동),대전광역시 유성구청,042-611-6610,7523.0,3355.0,http://lib.yuseong.go.kr/,36.33771587,127.3374864,2023-06-13,3670000,대전광역시 유성구
원신흥도서관,대전광역시,유성구,공공도서관,월+공휴일,08:00,22:00,08:00,22:00,08:00,22:00,98,48726,52,0,5,14,대전광역시 유성구 노은동로 234번길35(지족동),대전광역시 유성구청,042-611-6970,4782.0,3717.0,http://lib.yuseong.go.kr/,36.38210426,127.3204213,2023-06-13,3670000,대전광역시 유성구
유성도서관,대전광역시,유성구,공공도서관,월+공휴일,08:00,22:00,08:00,22:00,08:00,22:00,186,129721,48,5654,5,14,대전광역시 유성구 대덕대로 507-38(가정동),대전광역시 유성구청,042-611-6530,29063.0,2466.0,http://lib.yuseong.go.kr/,36.37842291,127.3759135,2023-06-13,3670000,대전광역시 유성구
진잠도서관,대전광역시,유성구,공공도서관,월+공휴일,08:00,22:00,08:00,22:00,08:00,22:00,117,83137,56,2050,5,14,대전광역시 유성구 진잠로160번길 19(원내동),대전광역시 유성구청,042-611-6590,1913.0,2591.0,http://lib.yuseong.go.kr/,36.30315562,127.3197685,2023-06-13,3670000,대전광역시 유성구
자두꽃작은도서관,경상북도,김천시,작은도서관,월+공휴일,13:00,18:00,13:00,18:00,00:00,00:00,25,15584,11,0,7,15,경상북도 김천시 신양1길 22,경상북도 김천시청,054-437-5870,,122.0,www.gcl.go.kr,36.1353004128,128.1158550452,2023-05-18,5060000,경상북도 김천시
큰숲작은도서관,경상북도,김천시,작은도서관,월+공휴일,13:00,18:00,13:00,18:00,00:00,00:00,32,14064,11,0,7,15,경상북도 김천시 영남대로 2040-20,경상북도 김천시청,054-435-7830,,174.0,www.gcl.go.kr,36.116781779,128.1486350724,2023-05-18,5060000,경상북도 김천시
기장도서관,부산광역시,기장군,공공도서관,매주 월요일+국가공휴일,07:00,23:59,07:00,23:59,00:00,00:00,524,183618,68,5911,5,14,부산광역시 기장군 기장읍 차성동로126번길 13-5,부산광역시 기장군청,051-709-5351,3370.0,2513.75,http://library.gijang.go.kr/gijang/main.do,35.24968318,129.2173047,2023-05-16,3400000,부산광역시 기장군
정관도서관,부산광역시,기장군,공공도서관,연중무휴(자료실 휴실 : 신정 명절연휴 매월 둘째 월요일),07:00,23:59,07:00,23:59,07:00,23:59,977,209012,83,7276,5,14,부산광역시 기장군 정관읍 정관중앙로100,부산광역시 기장군청,051-709-3901,8000.0,7371.33,http://library.gijang.go.kr/jglib/main.do,35.32529082,129.1817313,2023-05-16,3400000,부산광역시 기장군
정관어린이도서관,부산광역시,기장군,공공도서관,매주 화요일+국가공휴일,09:00,22:00,09:00,18:00,00:00,00:00,136,44610,33,1495,5,14,부산광역시 기장군 정관읍 정관8로 11,부산광역시 기장군청,051-709-5386,22770.2,827.95,http://library.gijang.go.kr/jgchildlib/main.do,35.32389937,129.177611,2023-05-16,3400000,부산광역시 기장군
대라다목적도서관,부산광역시,기장군,공공도서관,매주 화요일+국가공휴일,09:00,22:00,09:00,18:00,00:00,00:00,265,43499,28,0,5,14,부산광역시 기장군 기장읍 차성서로86,부산광역시 기장군청,051-709-3961,668.0,982.79,http://library.gijang.go.kr/daera/main.do,35.24079915,129.2105922,2023-05-16,3400000,부산광역시 기장군
내리새라도서관,부산광역시,기장군,공공도서관,매주 월요일+국가공휴일,09:00,22:00,09:00,18:00,00:00,00:00,183,20575,27,0,5,14,부산광역시 기장군 기장읍 기장대로51,부산광역시 기장군청,051-709-3967,1000.0,714.01,https://library.gijang.go.kr/naeri/main.do,35.20182015,129.2061857,2023-05-16,3400000,부산광역시 기장군
고촌어울림도서관,부산광역시,기장군,공공도서관,매주 월요일+국가공휴일,09:00,22:00,09:00,18:00,00:00,00:00,194,21537,32,0,5,14,부산광역시 기장군 철마면 고촌로51,부산광역시 기장군청,051-709-5381,700.0,710.9,https://library.gijang.go.kr/gochon/main.do,35.23872961,129.1686978,2023-05-16,3400000,부산광역시 기장군
교리도서관,부산광역시,기장군,공공도서관,매주 월요일+국가공휴일,09:00,22:00,09:00,18:00,00:00,00:00,160,22907,20,0,5,14,부산광역시 기장군 기장읍 차성로417번길 11,부산광역시 기장군청,051-709-5375,5714.0,1045.92,https://library.gijang.go.kr/gyori/main.do,35.25512522,129.2151737,2023-05-16,3400000,부산광역시 기장군
정약용도서관,경기도,남양주시,공공도서관,첫째·셋째 금요일+1월 1일+설날·추석 연휴(대체공휴일 포함),09:00,22:00,09:00,18:00,09:00,18:00,560,209359,89,10576,20,14,경기도 남양주시 다산중앙로82번안길 138,경기도 남양주시청,031-590-2587,21501.0,12807.0,http://lib.nyj.go.kr/jyy,37.61215767,127.1673571,2023-04-30,3990000,경기도 남양주시
와부도서관,경기도,남양주시,공공도서관,둘째·넷째 금요일+1월 1일+설날·추석 연휴(대체공휴일 포함),09:00,22:00,09:00,22:00,09:00,22:00,430,140750,95,6221,20,14,경기도 남양주시 와부읍 월문천로 43,경기도 남양주시청,031-590-8920,3920.0,4010.0,http://lib.nyj.go.kr/waboo,37.5856854,127.2174983,2023-04-30,3990000,경기도 남양주시
화도도서관,경기도,남양주시,공공도서관,첫째·셋째 금요일+1월 1일+설날·추석 연휴(대체공휴일 포함),09:00,22:00,09:00,22:00,09:00,22:00,328,129560,97,3083,20,14,경기도 남양주시 화도읍 수레로1260번길 33,경기도 남양주시청,031-590-4587,596.0,2667.0,http://lib.nyj.go.kr/hwado,37.6501371,127.3058147,2023-04-30,3990000,경기도 남양주시
진건도서관,경기도,남양주시,공공도서관,둘째·넷째 금요일+1월 1일+설날·추석 연휴(대체공휴일 포함),09:00,22:00,09:00,22:00,09:00,22:00,263,102055,88,4201,20,14,경기도 남양주시 진건읍 진건오남로 41-25,경기도 남양주시청,031-590-8260,1322.0,2848.0,http://lib.nyj.go.kr/jingeon,37.6551356,127.1774389,2023-04-30,3990000,경기도 남양주시
평내도서관,경기도,남양주시,공공도서관,첫째·셋째 월요일+1월 1일+설날·추석 연휴(대체공휴일 포함),09:00,22:00,09:00,22:00,09:00,22:00,303,122330,88,2637,20,14,경기도 남양주시 의안로 134,경기도 남양주시청,031-590-8562,3172.0,6307.0,http://lib.nyj.go.kr/pynae,37.6417431,127.2388903,2023-04-30,3990000,경기도 남양주시
김산고을작은도서관,경상북도,김천시,작은도서관,월+공휴일,13:00,18:00,13:00,18:00,00:00,00:00,31,18699,11,0,7,15,경상북도 김천시 삼락택지길 132,경상북도 김천시청,054-439-7870,,192.0,www.gcl.go.kr,36.1427705486,128.0992748506,2023-05-18,5060000,경상북도 김천시
호평도서관,경기도,남양주시,공공도서관,둘째·넷째 월요일+1월 1일+설날·추석 연휴(대체공휴일 포함),09:00,22:00,09:00,22:00,09:00,22:00,286,65288,97,751,20,14,경기도 남양주시 천마산로 67,경기도 남양주시청,031-590-8340,788.0,1956.0,http://lib.nyj.go.kr/hp,37.66764367,127.2480045,2023-04-30,3990000,경기도 남양주시
별내도서관,경기도,남양주시,공공도서관,둘째·넷째 금요일+1월 1일+설날·추석 연휴(대체공휴일 포함),09:00,22:00,09:00,22:00,09:00,22:00,329,119441,92,5128,20,14,경기도 남양주시 별내면 청학로 86-1,경기도 남양주시청,031-590-8808,2501.0,3215.0,http://lib.nyj.go.kr/bnae,37.7083499,127.1178283,2023-04-30,3990000,경기도 남양주시
진접도서관,경기도,남양주시,공공도서관,첫째·셋째 월요일+1월 1일+설날·추석 연휴(대체공휴일 포함),09:00,22:00,09:00,22:00,09:00,22:00,614,101090,90,1774,20,14,경기도 남양주시 진접읍 금강로 1554-11,경기도 남양주시청,031-590-5310,3250.0,4426.0,http://lib.nyj.go.kr/jinjeop,37.7296018,127.1941965,2023-04-30,3990000,경기도 남양주시
진접푸른숲도서관,경기도,남양주시,공공도서관,둘째·넷째 월요일+1월 1일+설날·추석 연휴(대체공휴일 포함),09:00,22:00,09:00,22:00,09:00,22:00,549,100538,92,2129,20,14,경기도 남양주시 진접읍 해밀예당2로 35,경기도 남양주시청,031-590-5330,6663.0,5352.0,http://lib.nyj.go.kr/jinjeopgw,37.7156893,127.1929216,2023-04-30,3990000,경기도 남양주시
오남도서관,경기도,남양주시,공공도서관,첫째·셋째 금요일+1월 1일+설날·추석 연휴(대체공휴일 포함),09:00,22:00,09:00,22:00,09:00,22:00,312,122425,90,3179,20,14,경기도 남양주시 오남읍 양지로240번길 12,경기도 남양주시청,031-590-8531,3000.0,5454.0,http://lib.nyj.go.kr/onam,37.6979608,127.1978694,2023-04-30,3990000,경기도 남양주시
퇴계원도서관,경기도,남양주시,공공도서관,둘째·넷째 월요일+1월 1일+설날·추석 연휴(대체공휴일 포함),09:00,22:00,09:00,22:00,09:00,22:00,256,93859,93,3042,20,14,경기도 남양주시 퇴계원읍 도제원로 12,경기도 남양주시청,031-590-3910,1012.0,2893.0,http://lib.nyj.go.kr/toegyewon,37.6491214,127.1452884,2023-04-30,3990000,경기도 남양주시
별빛도서관,경기도,남양주시,공공도서관,첫째·셋째 월요일+1월 1일+설날·추석 연휴(대체공휴일 포함),09:00,22:00,09:00,22:00,09:00,22:00,596,91555,95,1418,20,14,경기도 남양주시 별내중앙로 102,경기도 남양주시청,031-590-5349,4200.0,6638.0,http://lib.nyj.go.kr/bbit,37.65093701,127.1203257,2023-04-30,3990000,경기도 남양주시
중앙도서관,경기도,연천군,공공도서관,국가지정공휴일,09:00,23:00,09:00,23:00,09:00,23:00,153,106654,38,42436,10,14,경기도 연천군 전곡읍 전은길 9-26,경기도 연천군청,031-839-4414,3306.0,2094.0,http://library.yeoncheon.go.kr,38.0323136,127.0709935,2023-05-23,4140000,경기도 연천군
속초시립도서관,강원도,속초시,공공도서관,월+공휴일,09:00,22:00,09:00,18:00,00:00,00:00,300,60860,247,4618,5,14,강원도 속초시 조양로 89 (조양동),강원도 속초시청,033-631-1443,4400.0,2651.0,http://library.sokcho.go.kr/,38.18676048,128.5906558,2023-05-22,4230000,강원도 속초시
풀이음작은도서관,강원도,속초시,작은도서관,월+공휴일,09:00,22:00,09:00,18:00,00:00,00:00,48,11016,0,0,5,14,강원도 속초시 미시령로3337번길 6-15 (교동),강원도 속초시청,033-636-1484,2721.0,283.0,http://library.sokcho.go.kr/,38.20640878,128.5718215,2023-05-22,4230000,강원도 속초시
중앙도서관,충청남도,보령시,공공도서관,"매주 금요일+국가지정 공휴일, ※ 공휴일 운영시각은 00:00으로 표기함",08:00,22:00,09:00,18:00,00:00,00:00,246,111662,16,1844,5,14,충청남도 보령시 천변북길 121,충청남도 보령시청,041-930-0971,1390.0,1255.0,https://brcn.go.kr/lib/,36.35124908,126.6008951,2023-05-18,4510000,충청남도 보령시
죽정도서관,충청남도,보령시,공공도서관,"매주 화요일+국가지정 공휴일, ※ 공휴일 운영시각은 00:00으로 표기함",09:00,22:00,09:00,18:00,00:00,00:00,137,50001,11,0,5,14,충청남도 보령시 체육관길 17,충청남도 보령시청,041-930-0972,4007.0,991.0,https://brcn.go.kr/lib/,36.35774126,126.6085607,2023-05-18,4510000,충청남도 보령시
주산도서관,충청남도,보령시,공공도서관,"매주 일요일+국가지정 공휴일, ※ 공휴일 운영시각은 00:00으로 표기함",09:00,18:00,09:00,18:00,00:00,00:00,60,38705,0,0,5,14,충청남도 보령시 주산면 충서로 411,충청남도 보령시 주산면,041-930-0973,3355.0,448.0,https://brcn.go.kr/lib/,36.19943776,126.6331982,2023-05-18,4510000,충청남도 보령시
오천작은도서관,충청남도,보령시,작은도서관,"매주 일요일+매주 월요일+국가지정 공휴일, ※ 공휴일 운영시각은 00:00으로 표기함",09:00,18:00,09:00,18:00,00:00,00:00,36,8007,3,0,5,14,충청남도 보령시 오천면 충청수영로 838,충청남도 보령시청,041-930-0974,319.0,224.0,https://brcn.go.kr/lib/,36.43873108,126.5218698,2023-05-18,4510000,충청남도 보령시
대천항작은도서관,충청남도,보령시,작은도서관,"매주 일요일+매주 월요일+국가지정 공휴일, ※ 공휴일 운영시각은 00:00으로 표기함",09:00,18:00,09:00,18:00,00:00,00:00,20,3255,2,0,5,14,충청남도 보령시 대천항로 370,충청남도 보령시청,041-930-0975,6878.0,484.0,https://brcn.go.kr/lib/,36.32660911,126.5061044,2023-05-18,4510000,충청남도 보령시
청소작은도서관,충청남도,보령시,작은도서관,"매주 일요일+매주 월요일+국가지정 공휴일, ※ 공휴일 운영시각은 00:00으로 표기함",09:00,18:00,09:00,18:00,00:00,00:00,9,1496,0,0,5,14,충청남도 보령시 청소면 청소큰길 167,충청남도 보령시 청소면,041-930-0976,1434.0,31.0,https://brcn.go.kr/lib/,36.4454624,126.5895719,2023-05-18,4510000,충청남도 보령시
문화의전당작은도서관,충청남도,보령시,작은도서관,"매주 일요일+매주 월요일+국가지정 공휴일, ※ 공휴일 운영시각은 00:00으로 표기함",09:00,18:00,09:00,18:00,00:00,00:00,20,6122,0,0,5,14,충청남도 보령시 대흥로 63,충청남도 보령시청,041-930-0977,14382.0,148.0,https://brcn.go.kr/lib/,36.35071294,126.5905262,2023-05-18,4510000,충청남도 보령시
청라애작은도서관,충청남도,보령시,작은도서관,"매주 일요일+매주 월요일+국가지정 공휴일, ※ 공휴일 운영시각은 00:00으로 표기함",09:00,18:00,09:00,18:00,00:00,00:00,24,2264,0,0,5,14,충청남도 보령시 청라면 원모루길 234-1,충청남도 보령시청,041-930-0978,100.0,100.0,https://brcn.go.kr/lib/,36.38971731,126.6740658,2023-05-18,4510000,충청남도 보령시
성주고을작은도서관,충청남도,보령시,작은도서관,"매주 일요일+매주 월요일+국가지정 공휴일, ※ 공휴일 운영시각은 00:00으로 표기함",09:00,18:00,09:00,18:00,00:00,00:00,20,2583,0,0,5,14,충청남도 보령시 성주면 화장골길 110-15,충청남도 보령시청,041-930-0979,185.0,185.0,https://brcn.go.kr/lib/,36.33035904,126.6512779,2023-05-18,4510000,충청남도 보령시
사천시어린이도서관,경상남도,사천시,공공도서관,월요일,09:00,18:00,09:00,18:00,00:00,00:00,20,33966,0,6887,5,14,경상남도 사천시 사남면 조동길 49-30,경상남도 사천시청,055-831-2966,15629.0,90452.0,https://elc.sacheon.go.kr/,,,2023-05-20,5340000,경상남도 사천시
김천시립도서관,경상북도,김천시,공공도서관,월+공휴일(일 제외)+열람실은 연중 개관(신정 및 설·추석연휴 제외),09:00,18:00,09:00,17:00,09:00,17:00,759,246726,107,19549,7,15,경상북도 김천시 평화순환길 111,경상북도 김천시청,054-437-7801,18770.0,7278.0,www.gcl.go.kr,36.12333825,128.1099149,2023-05-18,5060000,경상북도 김천시
김천시립율곡도서관,경상북도,김천시,공공도서관,월+공휴일(일 제외)+열람실은 연중 개관(신정 및 설·추석연휴 제외),09:00,18:00,09:00,17:00,09:00,17:00,1162,93368,107,0,7,15,경상북도 김천시 용전1로1길 17,경상북도 김천시청,054-421-0200,8287.0,10163.0,www.gcl.go.kr,36.1221337,128.1887591,2023-05-18,5060000,경상북도 김천시
푸름찬작은도서관,경상북도,김천시,작은도서관,월+공휴일,13:00,18:00,13:00,18:00,00:00,00:00,23,14747,11,0,7,15,경상북도 김천시 아포읍 한지2길 64-9,경상북도 김천시청,054-435-7870,,142.0,www.gcl.go.kr,36.1586350352,128.2633997606,2023-05-18,5060000,경상북도 김천시
꿈앤들작은도서관,경상북도,김천시,작은도서관,월+공휴일,13:00,18:00,13:00,18:00,00:00,00:00,12,12945,11,0,7,15,경상북도 김천시 어모면 어모문화3길 28-7,경상북도 김천시청,054-437-7870,,90.0,www.gcl.go.kr,36.181619,128.116421,2023-05-18,5060000,경상북도 김천시
달봉산작은도서관,경상북도,김천시,작은도서관,월+공휴일,13:00,18:00,13:00,18:00,00:00,00:00,28,15945,11,0,7,15,경상북도 김천시 시청6길 7,경상북도 김천시청,054-433-7870,,154.0,www.gcl.go.kr,36.140953593,128.1135874283,2023-05-18,5060000,경상북도 김천시
보랏빛꿈작은도서관,경상북도,김천시,작은도서관,월+공휴일,13:00,18:00,13:00,18:00,00:00,00:00,16,15268,11,0,7,15,경상북도 김천시 부곡길 162,경상북도 김천시청,054-435-6870,,92.0,www.gcl.go.kr,36.1249948445,128.0963449402,2023-05-18,5060000,경상북도 김천시
삼산이수작은도서관,경상북도,김천시,작은도서관,월+공휴일,13:00,18:00,13:00,18:00,00:00,00:00,33,16806,11,0,7,15,경상북도 김천시 모암사랑길55,경상북도 김천시청,054-431-6870,,220.0,www.gcl.go.kr,36.1237523757,128.1260248161,2023-05-18,5060000,경상북도 김천시
고래실작은도서관,경상북도,김천시,작은도서관,월+공휴일,13:00,18:00,13:00,18:00,00:00,00:00,14,14041,11,0,7,15,경상북도 김천시 고래실3길 45-14,경상북도 김천시청,054-436-6870,,112.0,www.gcl.go.kr,36.1226018693,128.0825356477,2023-05-18,5060000,경상북도 김천시
중앙도서관,경기도,파주시,공공도서관,"1,3,5월요일",09:00,22:00,09:00,18:00,09:00,18:00,506,246197,251,6989,7,14,경기도 파주시 쇠재로 33(금촌동),중앙도서관,031-940-5651,2030.0,6516.0,https://lib.paju.go.kr/jalib,37.7500196,126.7707155,2022-10-21,4060000,경기도 파주시
금촌도서관,경기도,파주시,공공도서관,매주 월요일,08:00,22:00,08:00,20:00,08:00,20:00,68,52974,52,757,7,14,경기도 파주시 시민회관길 40(금촌동),금촌도서관,031-940-4382,1388.0,385.0,https://lib.paju.go.kr/gclib,37.7585051,126.7800448,2022-10-21,4060000,경기도 파주시
군산시립도서관(자료열람실),전라북도,군산시,공공도서관,매주 월요일 및 국가지정 공휴일(일요일 운영시간 토요일과 동일),09:00,22:00,09:00,18:00,00:00,00:00,330,166584,61,21405,5,14,전라북도 군산시 축동로 72,전라북도 군산시청,063-454-5620,2450.0,5736.0,http://lib.gunsan.go.kr,35.96608858,126.7113646,2023-03-16,4670000,전라북도 군산시
군산시립도서관(학습실),전라북도,군산시,공공도서관,"명절, 선거일",07:00,22:00,07:00,23:00,07:00,23:00,462,0,0,0,0,0,전라북도 군산시 축동로 72,전라북도 군산시청,063-454-5620,2450.0,5736.0,http://lib.gunsan.go.kr,35.96608858,126.7113646,2023-03-16,4670000,전라북도 군산시
대구학생문화센터 도서실,대구광역시,달서구,작은도서관,토+일+공휴일,09:00,18:00,00:00,00:00,00:00,00:00,70,91663,114,0,10,15,대구광역시 달서구 용산로 181,대구학생문화센터,053-231-1291,25768.0,443.0,http://www.dge.go.kr/dccs,35.85302346,128.5295222,2023-06-01,7240195,대구광역시교육청 대구학생문화센터
중앙도서관,경기도,양평군,공공도서관,"새해첫날,설,추석연휴 및 대체공휴일",09:00,22:00,09:00,18:00,09:00,18:00,280,157363,40,6536,7,14,경기도 양평군 양평읍 양근로 240-9,경기도 양평군청,031-770-2730,5236.0,1936.0,http://www.yplib.go.kr,37.48591089,127.494309,2023-05-24,4170000,경기도 양평군
어린이도서관,경기도,양평군,공공도서관,매주월/공휴일,09:00,18:00,09:00,18:00,00:00,00:00,108,66345,14,4391,7,14,경기도 양평군 양평읍 양근로 240-9,경기도 양평군청,031-770-2734,5236.0,1970.0,http://www.yplib.go.kr,37.48591089,127.4943424,2023-05-24,4170000,경기도 양평군
양서친환경도서관,경기도,양평군,공공도서관,"새해첫날,설,추석연휴 및 대체공휴일",09:00,22:00,09:00,18:00,09:00,18:00,293,76944,58,2923,7,14,경기도 양평군 양서면 양수로 110,경기도 양평군청,031-770-2596,2934.0,1497.0,http://www.yplib.go.kr,37.5425053,127.3233071,2023-05-24,4170000,경기도 양평군
용문도서관,경기도,양평군,공공도서관,"새해첫날,설,추석연휴 및 대체공휴일",09:00,22:00,09:00,18:00,09:00,18:00,264,86230,40,3271,7,14,경기도 양평군 용문면 용문로 395,경기도 양평군청,031-770-2710,1655.0,1451.0,http://www.yplib.go.kr,37.48716841,127.5962168,2023-05-24,4170000,경기도 양평군
지평도서관,경기도,양평군,공공도서관,"새해첫날,설,추석연휴 및 대체공휴일",09:00,20:00,09:00,18:00,09:00,18:00,162,42106,19,1529,7,14,경기도 양평군 지평면 지평의병로116번길 5,경기도 양평군청,031-770-2561,2215.0,1045.0,http://www.yplib.go.kr,37.47363598,127.6385713,2023-05-24,4170000,경기도 양평군
양동도서관,경기도,양평군,공공도서관,"새해첫날,설,추석연휴 및 대체공휴일",09:00,20:00,09:00,18:00,09:00,18:00,173,42178,20,2651,7,14,경기도 양평군 양동면 학둔지아래길 93,경기도 양평군청,031-770-2571,3434.0,1314.0,http://www.yplib.go.kr,37.41919108,127.7546882,2023-05-24,4170000,경기도 양평군
강상작은도서관,경기도,양평군,작은도서관,"매주일,월/공휴일",09:00,18:00,09:00,18:00,00:00,00:00,36,8848,6,98,7,14,경기도 양평군 강상면 송학길 60,경기도 양평군청,031-775-7483,3927.0,140.0,http://www.yplib.go.kr,37.480695,127.478067,2023-05-24,4170000,경기도 양평군
강하작은도서관,경기도,양평군,작은도서관,"매주일,월/공휴일",09:00,18:00,09:00,18:00,00:00,00:00,48,11343,6,149,7,14,경기도 양평군 강하면 운심길 47,경기도 양평군청,031-771-4302,634.0,179.0,http://www.yplib.go.kr,37.49617652,127.4112172,2023-05-24,4170000,경기도 양평군
고읍내작은도서관,경기도,양평군,작은도서관,"매주일,월/공휴일",09:00,18:00,09:00,18:00,00:00,00:00,66,7777,6,0,7,14,경기도 양평군 옥천면 옥천길 21,경기도 양평군청,031-771-5703,361.0,361.0,http://www.yplib.go.kr,37.51810619,127.4560503,2023-05-24,4170000,경기도 양평군
서종작은도서관,경기도,양평군,작은도서관,"매주일,월/공휴일",09:00,18:00,09:00,18:00,00:00,00:00,54,18004,7,465,7,14,경기도 양평군 서종면 북한강로 777,경기도 양평군청,031-775-8258,1852.0,203.0,http://www.yplib.go.kr,37.60658353,127.3487122,2023-05-24,4170000,경기도 양평군
청운작은도서관,경기도,양평군,작은도서관,"매주일,월/공휴일",13:00,18:00,13:00,18:00,00:00,00:00,20,8237,2,0,7,14,경기도 양평군 청운면 용두민속장터길 2,경기도 양평군청,031-775-0552,2045.0,254.0,http://www.yplib.go.kr,37.553631,127.708314,2023-05-24,4170000,경기도 양평군
개군작은도서관,경기도,양평군,작은도서관,"매주일,월/공휴일",13:00,18:00,13:00,18:00,00:00,00:00,41,6871,5,61,7,14,경기도 양평군 개군면 추읍로 37,경기도 양평군청,031-771-5624,179.0,168.0,http://www.yplib.go.kr,37.42821683,127.5422415,2023-05-24,4170000,경기도 양평군
단월작은도서관,경기도,양평군,작은도서관,"매주일,월/공휴일",13:00,18:00,13:00,18:00,00:00,00:00,48,3903,2,0,7,14,경기도 양평군 단월면 보룡길 82,경기도 양평군청,031-771-0634,165.0,165.0,http://www.yplib.go.kr,37.540818,127.6735088,2023-05-24,4170000,경기도 양평군
세미원작은도서관,경기도,양평군,작은도서관,매주 월요일,09:00,18:00,09:00,18:00,09:00,18:00,55,1256,0,0,7,14,경기도 양평군 양서면 양수로 93,경기도 양평군청,031-775-1835,110.0,110.0,http://www.yplib.go.kr,37.54093938,127.3239611,2023-05-24,4170000,경기도 양평군
중앙도서관,울산광역시,북구,공공도서관,매주월요일+법정공휴일,09:00,22:00,09:00,18:00,00:00,00:00,447,119726,85,1025,30,14,울산광역시 북구 두부곡 1길 9(연암동),울산광역시 북구,052-241-7407,992.0,2447.14,https://usbl.bukgu.ulsan.kr,35.58419071,129.3672866,2023-05-21,3720000,울산광역시 북구
염포양정도서관,울산광역시,북구,공공도서관,매주월요일+법정공휴일,09:00,22:00,09:00,18:00,00:00,00:00,124,53795,27,621,30,14,울산광역시 북구 염포로 685-1(염포동),울산광역시 북구,052-241-7450,1049.0,996.65,https://usbl.bukgu.ulsan.kr,35.5318826,129.3939096,2023-05-21,3720000,울산광역시 북구
명촌어린이도서관,울산광역시,북구,공공도서관,매주월요일+법정공휴일,09:00,21:00,09:00,18:00,00:00,00:00,122,28150,15,162,30,14,"울산광역시 북구 명촌12길 11, 4층(명촌동)",울산광역시 북구,052-241-7460,371.48,371.48,https://usbl.bukgu.ulsan.kr,35.55514051,129.3553039,2023-05-21,3720000,울산광역시 북구
매곡도서관,울산광역시,북구,공공도서관,매주월요일+법정공휴일,09:00,22:00,09:00,18:00,00:00,00:00,220,49111,89,0,30,14,울산광역시 북구 매곡로 138-19 (매곡동),울산광역시 북구,052-241-7470,3787.0,2103.77,https://usbl.bukgu.ulsan.kr,35.64650566,129.3588981,2023-05-21,3720000,울산광역시 북구
기적의도서관,울산광역시,북구,공공도서관,매주월요일+법정공휴일,09:00,20:00,09:00,18:00,00:00,00:00,172,51817,27,777,30,14,울산광역시 북구 이화5길 29-13(중산동),울산광역시 북구,052-241-7420,891.0,728.5,https://usbl.bukgu.ulsan.kr,35.66216258,129.3365171,2023-05-21,3720000,울산광역시 북구
맑은숲작은도서관,울산광역시,동구,작은도서관,월,10:00,17:00,10:00,12:00,12:00,15:00,16,10754,0,0,2,14,울산광역시 동구 명덕6길 29,명성교회,052-251-7995,,107.0,,,,2023-04-25,3710000,울산광역시 동구
농소1동도서관,울산광역시,북구,공공도서관,매주월요일+법정공휴일,09:00,22:00,09:00,18:00,00:00,00:00,188,54068,26,883,30,14,울산광역시 북구 동대 15길 27 (호계동),울산광역시 북구,052-241-7430,702.0,952.7,https://usbl.bukgu.ulsan.kr,35.6291873,129.3545038,2023-05-21,3720000,울산광역시 북구
농소3동도서관,울산광역시,북구,공공도서관,매주월요일+법정공휴일,09:00,22:00,09:00,18:00,00:00,00:00,256,54976,25,1006,30,14,울산광역시 북구 아진1로 47(천곡동),울산광역시 북구,052-241-7440,966.0,932.32,https://usbl.bukgu.ulsan.kr,35.6330929,129.3355864,2023-05-21,3720000,울산광역시 북구
연천도서관,경기도,연천군,공공도서관,매주월요일+국가지정공휴일,09:00,23:00,09:00,23:00,09:00,23:00,84,73859,39,1812,10,14,경기도 연천군 연천읍 차현로 76-7,경기도 연천군청,031-839-4404,4247.0,1348.0,http://library.yeoncheon.go.kr,38.0981105,127.0766844,2023-05-23,4140000,경기도 연천군
씨앗나눔작은도서관,울산광역시,중구,작은도서관,일,10:00,18:00,10:00,13:00,00:00,00:00,50,1000,0,0,3,14,울산광역시 중구 함월6길 5-8(성안동),,052-242-0411,,,,35.5725334,129.3138735,2022-09-22,3690000,울산광역시 중구
약사아이파크글샘도서관,울산광역시,중구,작은도서관,토+일,14:00,17:00,00:00,00:00,00:00,00:00,77,5960,0,0,3,14,울산광역시 중구 평산로 50((약사동),,052-296-6400,,,,35.57166309,129.3370885,2022-09-22,3690000,울산광역시 중구
에뜰3차아름도서관,울산광역시,중구,작은도서관,토+일,14:00,17:00,00:00,00:00,00:00,00:00,20,1215,0,23,3,14,울산광역시 중구 종가로 245(유곡동),,052-211-1931,,,,35.56440981,129.3035603,2022-09-22,3690000,울산광역시 중구
에일린의뜰1차아파트작은도서관,울산광역시,중구,작은도서관,화+목+토+일,15:00,17:00,00:00,00:00,00:00,00:00,6,2000,0,0,3,14,울산광역시 중구 종가5길 10(유곡동),,052-286-1277,,,,35.56196618,129.3006759,2022-09-22,3690000,울산광역시 중구
에일린의뜰문고,울산광역시,중구,작은도서관,토+일,10:00,16:00,00:00,00:00,00:00,00:00,20,2700,0,0,3,14,울산광역시 중구 남외1길 105(남외동),,052-295-0706,,,,35.56750085,129.349552,2022-09-22,3690000,울산광역시 중구
엑소디움작은도서관,울산광역시,중구,작은도서관,휴관중,00:00,00:00,00:00,00:00,00:00,00:00,33,1200,0,0,3,14,울산광역시 중구 강북로 123(옥교동),,052-211-1326,,,,35.5531499,129.3230251,2022-09-22,3690000,울산광역시 중구
예술융합좋은땅도서관,울산광역시,중구,작은도서관,토+일,13:00,18:00,00:00,00:00,00:00,00:00,18,4700,0,0,3,14,울산광역시 중구 염포로 24(반구동),,052-297-0297,,,,35.55935527,129.3441699,2022-09-22,3690000,울산광역시 중구
배산작은도서관,부산광역시,연제구,작은도서관,"매주월요일, 국가지정공휴일",10:00,20:00,10:00,18:00,10:00,14:00,35,16618,36,182,5,14,부산광역시 연제구 배산북로8(연산동),부산광역시 연제구청,051-665-4508,,194.98,,35.17509425,129.0933137,2022-10-14,3370000,부산광역시 연제구
솔벗작은도서관,부산광역시,연제구,작은도서관,"매주일요일, 국가지정공휴일",10:00,19:00,10:00,14:00,10:00,14:00,20,10414,25,0,5,14,부산광역시 연제구 아시아드대로22번길15(거제동),부산광역시 연제구청,051-665-4511,,138.32,,35.18764403,129.0701317,2022-10-14,3370000,부산광역시 연제구
밤골작은도서관,부산광역시,연제구,작은도서관,"매주월요일, 국가지정공휴일",10:00,20:00,10:00,18:00,10:00,14:00,33,11110,2,0,5,14,부산광역시 연제구 금련로 24번길33(연산동),부산광역시 연제구청,051-665-4513,,138.64,,35.1720557,129.0944725,2022-10-14,3370000,부산광역시 연제구
해뜰작은도서관,부산광역시,연제구,작은도서관,"매주일요일, 국가지정공휴일",10:00,19:00,10:00,14:00,00:00,00:00,33,18554,2,307,5,14,부산광역시 연제구 중앙대로 1150번길15(연산동),부산광역시 연제구청,051-665-4512,,126.0,,35.19056266,129.0815476,2022-10-14,3370000,부산광역시 연제구
해맞이작은도서관,부산광역시,연제구,작은도서관,"매주일요일, 국가지정공휴일",10:00,19:00,10:00,14:00,10:00,14:00,28,9144,34,0,5,14,부산광역시 연제구 해맞이로 43번길 36,부산광역시 연제구청,051-665-4518,,143.55,,35.17937101,129.066573,2022-10-14,3370000,부산광역시 연제구
상록어린이도서관,경기도,안산시,공공도서관,매주금요일+국가지정공휴일,09:00,18:00,09:00,18:00,00:00,00:00,441,123557,53,4162,10,14,경기도 안산시 상록구 구룡체육관로 45(일동),안산시 평생학습원 감골도서관,031-481-2671,3730.0,2196.0,http://lib.iansan.net,37.30732706,126.8620316,2022-10-31,3930000,경기도 안산시
행운동 마루작은도서관,서울특별시,관악구,작은도서관,토+일+공휴일,10:00,18:00,00:00,00:00,00:00,00:00,20,6813,0,11,8,14,서울특별시 관악구 행운1길 43,서울특별시 관악구청,02-876-3434,626.0,1447.0,http://lib.gwanak.go.kr/,37.48064257,126.957059,2022-10-15,3200000,서울특별시 관악구
청룡동 숯고을작은도서관,서울특별시,관악구,작은도서관,토+일+공휴일,10:00,18:00,00:00,00:00,00:00,00:00,20,10574,2,43,8,14,서울특별시 관악구 쑥고개로 44,서울특별시 관악구청,02-876-4083,779.0,1441.0,http://lib.gwanak.go.kr/,37.479107,126.941694,2022-10-15,3200000,서울특별시 관악구
낙성동 우듬지작은도서관,서울특별시,관악구,작은도서관,토+일+공휴일,10:00,18:00,00:00,00:00,00:00,00:00,20,9581,0,15,8,14,서울특별시 관악구 낙성대로4가길 5,서울특별시 관악구청,02-876-4072,924.0,2004.0,http://lib.gwanak.go.kr/,37.476264,126.958365,2022-10-15,3200000,서울특별시 관악구
인헌동 보물섬 작은도서관,서울특별시,관악구,작은도서관,토+일+공휴일,10:00,18:00,00:00,00:00,00:00,00:00,24,20274,3,264,8,14,서울특별시 관악구 남부순환로246가길 20,서울특별시 관악구청,02-889-4941,590.0,1497.0,http://lib.gwanak.go.kr/,37.475044,126.9653243,2022-10-15,3200000,서울특별시 관악구
남현동 우리작은도서관,서울특별시,관악구,작은도서관,토+일+공휴일,10:00,18:00,00:00,00:00,00:00,00:00,60,17960,3,301,8,14,서울특별시 관악구 남현1가길 29,서울특별시 관악구청,02-525-1334,939.0,2448.0,http://lib.gwanak.go.kr/,37.47468786,126.9778675,2022-10-15,3200000,서울특별시 관악구
신림동 굴렁쇠작은도서관,서울특별시,관악구,작은도서관,토+일+공휴일,10:00,18:00,00:00,00:00,00:00,00:00,12,7194,0,9,8,14,서울특별시 관악구 신림동길 14,서울특별시 관악구청,02-877-2727,499.0,1037.0,http://lib.gwanak.go.kr/,37.487372,126.927118,2022-10-15,3200000,서울특별시 관악구
신사동 해오름작은도서관,서울특별시,관악구,작은도서관,토+일+공휴일,10:00,18:00,00:00,00:00,00:00,00:00,20,9690,0,26,8,14,서울특별시 관악구 조원로 151-1,서울특별시 관악구청,02-853-7336,369.0,695.0,http://lib.gwanak.go.kr/,37.485923,126.9191029,2022-10-15,3200000,서울특별시 관악구
미성동 책의향기작은도서관,서울특별시,관악구,작은도서관,토+일+공휴일,10:00,18:00,00:00,00:00,00:00,00:00,20,8710,7,7,8,14,서울특별시 관악구 난곡로 249,서울특별시 관악구청,02-830-5312,396.0,721.0,http://lib.gwanak.go.kr/,37.476132,126.915527,2022-10-15,3200000,서울특별시 관악구
난곡동 책사랑 작은도서관,서울특별시,관악구,작은도서관,토+일+공휴일,10:00,18:00,00:00,00:00,00:00,00:00,16,8656,0,0,8,14,서울특별시 관악구 난곡로 30길 40,서울특별시 관악구청,02-861-7130,836.0,2271.0,http://lib.gwanak.go.kr/,37.47102189,126.921644,2022-10-15,3200000,서울특별시 관악구
중화어린이도서관,서울특별시,중랑구,공공도서관,일+법정공휴일+근로자의날(5월1일)+임시휴관일,09:00,18:00,10:00,17:00,00:00,00:00,50,25150,0,0,7,14,서울특별시 중랑구 중랑역로3길 28 (중화동),중랑문화재단,02-494-1846,763.0,133.0,http://www.jungnanglib.seoul.kr/jhklib,37.595004,127.0748925,2022-11-21,3060000,서울특별시 중랑구
양원숲속도서관,서울특별시,중랑구,공공도서관,월+법정공휴일(일요일 제외)+근로자의 날(5월 1일)+임시휴관일,09:00,18:00,09:00,17:00,00:00,00:00,248,39337,51,2660,7,14,서울특별시 중랑구 송림길 172 (망우동),중랑문화재단,02-432-0710,,970.78,http://www.jungnanglib.seoul.kr/ywlib/,37.606825,127.110697,2022-11-21,3060000,서울특별시 중랑구
중랑상봉도서관,서울특별시,중랑구,공공도서관,월+법정공휴일(일요일 제외)+근로자의 날(5월 1일)+임시휴관일,09:00,20:00,09:00,17:00,00:00,00:00,268,44683,80,0,7,14,서울특별시 중랑구 동일로114길 10 (상봉동),중랑문화재단,02-2209-0090,1372.69,1753.41,http://www.jungnanglib.seoul.kr/sblib/,37.59289195,127.0808518,2022-11-21,3060000,서울특별시 중랑구
연제도서관,부산광역시,연제구,공공도서관,"매주월요일, 국가지정공휴일",09:00,22:00,09:00,18:00,09:00,17:00,193,145260,65,2452,5,14,부산광역시 연제구 황령산로 612(연산동),부산광역시 연제구청,051-665-5511,1750.2,2016.98,http://www.yeonje.go.kr/library/main.do,35.17414442,129.0829683,2022-10-14,3370000,부산광역시 연제구
연산도서관,부산광역시,연제구,공공도서관,"매주 셋째, 넷째 월요일, 국가지정공휴일",09:00,22:00,09:00,18:00,09:00,17:00,330,151452,97,9705,5,14,부산광역시 연제구 고분로191번길 16,부산광역시 교육청,051-792-5400,1527.0,1370.0,https://home.pen.go.kr/yeonsanlib/main.do,35.185874,129.1043222,2022-10-14,3370000,부산광역시 연제구
봉천역 U-도서관,서울특별시,관악구,작은도서관,공휴일,06:00,23:59,06:00,23:59,00:00,00:00,0,112,0,0,5,14,서울특별시 관악구 남부순환로 지하 1721,서울특별시 관악구청,00-000-0000,,,http://lib.gwanak.go.kr/,37.48255622,126.9414953,2022-10-15,3200000,서울특별시 관악구
낙성대역 U-도서관,서울특별시,관악구,작은도서관,공휴일,06:00,23:59,06:00,23:59,00:00,00:00,0,112,0,0,5,14,서울특별시 관악구 남부순환로 지하 1928,서울특별시 관악구청,00-000-0000,,,http://lib.gwanak.go.kr/,37.47706518,126.9634099591,2022-10-15,3200000,서울특별시 관악구
신림역 U-도서관,서울특별시,관악구,작은도서관,공휴일,06:00,23:59,06:00,23:59,00:00,00:00,0,112,0,0,5,14,서울특별시 관악구 남부순환로 지하 1614,서울특별시 관악구청,00-000-0000,,,http://lib.gwanak.go.kr/,37.484224,126.9298033,2022-10-15,3200000,서울특별시 관악구
봉현작은도서관,서울특별시,관악구,작은도서관,일+공휴일,09:00,18:00,10:00,17:00,00:00,00:00,24,10491,0,333,8,14,서울특별시 관악구 관악로 255-7,서울특별시 관악구청,070-7163-5167,979.0,1550.0,http://lib.gwanak.go.kr/,37.48721429,126.956625,2022-10-15,3200000,서울특별시 관악구
청룡작은도서관,서울특별시,관악구,작은도서관,일+공휴일,09:00,18:00,10:00,17:00,00:00,00:00,20,6737,0,3,8,14,서울특별시 관악구 청룡9길 12-39,서울특별시 관악구청,02-876-4041,300.0,495.0,http://lib.gwanak.go.kr/,37.478018,126.946457,2022-10-15,3200000,서울특별시 관악구
삼성작은도서관,서울특별시,관악구,작은도서관,일+공휴일,09:00,18:00,10:00,17:00,00:00,00:00,20,10360,0,0,8,14,서울특별시 관악구 호암로 520,서울특별시 관악구청,070-7163-5166,375.0,642.0,http://lib.gwanak.go.kr/,37.46411546,126.931802,2022-10-15,3200000,서울특별시 관악구
보라매동 다사랑작은도서관,서울특별시,관악구,작은도서관,토+일+공휴일,10:00,18:00,00:00,00:00,00:00,00:00,15,8596,4,0,8,14,서울특별시 관악구 봉천로 279-8,서울특별시 관악구청,02-876-2879,1556.0,1308.0,http://lib.gwanak.go.kr/,37.48817576,126.932778,2022-10-15,3200000,서울특별시 관악구
은천동 한울작은도서관,서울특별시,관악구,작은도서관,토+일+공휴일,10:00,18:00,00:00,00:00,00:00,00:00,20,16381,0,81,8,14,서울특별시 관악구 국회단지2길 29-10,서울특별시 관악구청,02-876-4091,403.0,455.0,http://lib.gwanak.go.kr/,37.48691146,126.941527,2022-10-15,3200000,서울특별시 관악구
성현동 파랑새작은도서관,서울특별시,관악구,작은도서관,토+일+공휴일,10:00,18:00,00:00,00:00,00:00,00:00,50,12101,2,42,8,14,서울특별시 관악구 구암길 38,서울특별시 관악구청,02-875-9054,1265.0,1461.0,http://lib.gwanak.go.kr/,37.489512,126.9481596,2022-10-15,3200000,서울특별시 관악구
중앙동 새싹작은도서관,서울특별시,관악구,작은도서관,토+일+공휴일,10:00,18:00,00:00,00:00,00:00,00:00,40,6104,4,115,8,14,서울특별시 관악구 양녕로6다길 7,서울특별시 관악구청,02-875-9513,,704.0,http://lib.gwanak.go.kr/,37.484166,126.949749,2022-10-15,3200000,서울특별시 관악구
청림동 푸른숲작은도서관,서울특별시,관악구,작은도서관,토+일+공휴일,10:00,18:00,00:00,00:00,00:00,00:00,20,8072,3,2,8,14,서울특별시 관악구 관악로40길 39,서울특별시 관악구청,02-876-4090,,786.0,http://lib.gwanak.go.kr/,37.49184717,126.9586277,2022-10-15,3200000,서울특별시 관악구
가수원도서관,대전광역시,서구,공공도서관,매주월요일 및 국가지정공휴일,07:00,22:00,07:00,18:00,07:00,18:00,372,165038,45,3815,10,14,대전광역시 서구 가수원로 91-11,대전광역시 서구청,042-288-4770,4887.0,3877.0,http://www.seogu.go.kr/learning/gasuwonlib/index.do,36.301633,127.3489232,2023-05-03,3660000,대전광역시 서구
둔산도서관,대전광역시,서구,공공도서관,매주월요일 및 국가지정공휴일,07:00,22:00,07:00,18:00,07:00,18:00,160,143116,43,1741,10,14,대전광역시 서구 청사로 263,대전광역시 서구청,042-288-4800,999.0,2367.0,http://www.seogu.go.kr/learning/dunsanlib/index.do,36.360054,127.3931883,2023-05-03,3660000,대전광역시 서구
어린이도서관,대전광역시,서구,공공도서관,매주금요일 및 국가지정공휴일,09:00,18:00,09:00,18:00,09:00,18:00,150,65915,18,3098,10,14,대전광역시 서구 정림동로 25,대전광역시 서구청,042-288-4830,859.0,530.0,http://www.seogu.go.kr/learning/childlib/index.do,36.30504773,127.3684557468,2023-05-03,3660000,대전광역시 서구
갈마도서관,대전광역시,서구,공공도서관,매주월요일 및 국가지정공휴일,07:00,22:00,07:00,18:00,07:00,18:00,308,217011,55,8462,10,14,대전광역시 서구 신갈마로127번길 138,대전광역시 서구청,042-288-4740,1488.0,2706.0,http://www.seogu.go.kr/learning/galmalib/index.do,36.3408346,127.3656951,2023-05-03,3660000,대전광역시 서구
월평도서관,대전광역시,서구,공공도서관,매주금요일 및 국가지정공휴일,07:00,22:00,07:00,18:00,07:00,18:00,530,74630,44,2359,10,14,대전광역시 서구 한밭대로 664(갈마동),대전광역시 서구청,042-288-4870,1488.0,3584.0,http://www.seogu.go.kr/learning/wolpyeonglib/index.do,36.35708549,127.3721704,2023-05-03,3660000,대전광역시 서구
영암도서관,전라남도,영암군,공공도서관,국경일+명절연휴+개관기념일(12월 14일)+휴관이 필요한 경우,08:00,22:00,08:00,22:00,08:00,22:00,622,155209,13,8782,3,717,전라남도 영암군 영암읍 교동로 89-5,전라남도 영암군청,061-470-6804,6654.0,2457.0,https://www.yeongam.go.kr/home/library,34.7979979011,126.6936464082,2023-04-10,4940000,전라남도 영암군
지혜의샘터,광주광역시,서구,작은도서관,일+국가지정 공휴일,11:00,21:00,11:00,21:00,11:00,21:00,20,2300,2,0,2,7,광주광역시 서구 풍암중앙로 86번길 2,우성지역아동센터,062-373-0136,,33.0,,35.12617723,126.883264,2022-12-05,3600000,광주광역시 서구
지혜의쉼터작은도서관,광주광역시,서구,작은도서관,일+국가지정 공휴일,09:30,18:00,09:30,18:00,00:00,00:00,60,9000,0,0,3,7,광주광역시 서구 화운로 24 (화정동) 유니버시아드 힐스테이트 3단지,유니버시아드힐스테이트3단지 입주자대표회의,070-4223-1173,,131.99,,35.14250727,126.8865353,2022-12-05,3600000,광주광역시 서구
책더하기사랑작은도서관,광주광역시,서구,작은도서관,일+국가지정 공휴일,09:00,18:00,09:00,18:00,09:00,18:00,12,17000,0,0,0,0,광주광역시 서구 상무대로 980,광주카톨릭대학교 평생교육원,062-380-2210,,65.75,,35.1502428,126.8684904,2022-12-05,3600000,광주광역시 서구
책마을작은도서관,광주광역시,서구,작은도서관,토+일+국가지정 공휴일,09:00,18:00,09:00,18:00,09:00,18:00,10,1500,0,0,0,0,광주광역시 서구 상무민주로123번길 9-5,책마을작은도서관,062-654-3927,,107.0,,35.16127386,126.8584299569,2022-12-05,3600000,광주광역시 서구
책사랑작은도서관,광주광역시,서구,작은도서관,일+국가지정 공휴일,10:00,19:00,10:00,19:00,10:00,19:00,30,4511,0,0,0,0,광주광역시 서구 금호동 마재로 23 중흥아파트 상가 상가동,풍암중흥1단지아파트,062-681-4377,,100.0,,35.13096453,126.8622871,2022-12-05,3600000,광주광역시 서구
푸른빛작은도서관,광주광역시,서구,작은도서관,국가지정 공휴일,09:00,20:00,09:00,20:00,09:00,20:00,20,3600,0,0,3,14,광주광역시 서구 쌍학로 47,쌍촌종합사회복지관,062-375-0035,50.0,49.5,http://www.ssangchon.or.kr,35.14738171,126.8688313,2022-12-05,3600000,광주광역시 서구
풍암전원작은도서관,광주광역시,서구,작은도서관,일+월+국가지정 공휴일,09:00,18:00,09:00,18:00,09:00,18:00,10,1320,0,0,5,7,광주광역시 서구 풍금로 11번길 17,풍암전원교회,062-654-7005,,51.84,,35.11977872,126.8643848,2022-12-05,3600000,광주광역시 서구
풍암호수작은도서관,광주광역시,서구,작은도서관,월+국가지정 공휴일,10:00,18:00,10:00,18:00,00:00,00:00,30,1944,0,0,1,15,광주광역시 서구 회재로 965,대한독서문화예술협회,062-655-7755,,33.0,,35.12920648,126.8684287,2022-12-05,3600000,광주광역시 서구
해돋는작은도서관,광주광역시,서구,작은도서관,월+수,09:00,18:00,09:00,18:00,09:00,18:00,50,1950,0,0,0,0,광주광역시 서구 금호동 금호운천길 11,해돋는교회,062-654-3927,,85.8,,35.13608405,126.857227,2022-12-05,3600000,광주광역시 서구
행복도서관,광주광역시,서구,작은도서관,토+일+국가지정 공휴일,09:00,18:00,09:00,18:00,09:00,18:00,20,6461,0,0,3,7,광주광역시 서구 상무자유로 73,광주광역시일가정양립지원본부,062-613-7995,,132.0,,35.15221868,126.842273,2022-12-05,3600000,광주광역시 서구
호반베르디움 작은도서관,광주광역시,서구,작은도서관,토+일+국가지정 공휴일,09:00,18:00,09:00,18:00,09:00,18:00,20,4000,0,0,5,21,광주광역시 서구 하남대로680번길 10,호반베르디움아파트 입주자대표회의,062-513-3154,,50.0,,35.17072876,126.8651586,2022-12-05,3600000,광주광역시 서구
화정4동작은도서관,광주광역시,서구,작은도서관,국가지정 공휴일,09:00,21:00,09:00,21:00,09:00,21:00,20,11638,0,0,2,14,광주광역시 서구 염화로83번길 3,광주광역시 서구 화정4동주민센터,062-384-4443,,225.0,,35.141827,126.873764,2022-12-05,3600000,광주광역시 서구
화정문고,광주광역시,서구,작은도서관,일+국가지정 공휴일,11:00,21:00,11:00,21:00,11:00,21:00,25,5000,0,0,5,20,광주광역시 서구 상무대로 1014번길 44,화정문고,070-8835-0910,265.0,165.0,,35.147682,126.872604,2022-12-05,3600000,광주광역시 서구
영주상망작은도서관,경상북도,영주시,작은도서관,매주일요일+매주월요일+국가지정공휴일,13:00,19:00,12:00,18:00,00:00,00:00,30,12377,0,112,3,15,경상북도 영주시 광복로 87 (하망동),경상북도 영주시청,054-631-6137,,132.0,http://lib.yeongju.go.kr,36.828161,128.6283302,2022-12-08,5090000,경상북도 영주시
영주휴천작은도서관,경상북도,영주시,작은도서관,매주일요일+매주월요일+국가지정공휴일,13:00,19:00,12:00,18:00,00:00,00:00,20,12412,0,227,3,15,경상북도 영주시 구성로273번길 30 (휴천동),경상북도 영주시청,054-631-6302,,76.0,http://lib.yeongju.go.kr,36.81778548,128.6258635,2022-12-08,5090000,경상북도 영주시
영주평은작은도서관,경상북도,영주시,작은도서관,매주토요일+매주일요일+국가지정공휴일,09:00,18:00,00:00,00:00,00:00,00:00,30,3562,0,112,3,15,경상북도 영주시 평은면 신평로 29,경상북도 영주시청,054-637-1677,,100.0,http://lib.yeongju.go.kr,36.75842346,128.6885728,2022-12-08,5090000,경상북도 영주시
영주시립도서관,경상북도,영주시,공공도서관,매주화요일,08:00,22:00,08:00,22:00,09:00,18:00,296,90980,48,2783,3,15,경상북도 영주시 가흥로 263 (가흥동),경상북도 영주시청,054-638-2550,9470.0,1338.0,http://lib.yeongju.go.kr,36.82085308,128.6129101,2022-12-08,5090000,경상북도 영주시
은광교회도서관,서울특별시,은평구,작은도서관,"월요일,     법정공휴일",10:00,18:00,10:00,16:00,09:00,15:00,50,9408,4,0,2,7,서울특별시 은평구 통일로68길 11,,02-383-2116,,,,37.6126562,126.92979,2021-04-01,3110000,서울특별시 은평구
바다의 별 작은도서관,서울특별시,은평구,작은도서관,월요일,09:00,22:00,09:00,22:00,06:00,22:00,30,7000,1,0,2,14,서울특별시 은평구 통일로 786(불광동성당),,02-355-0545,,,,37.61492896,126.9262507,2021-04-01,3110000,서울특별시 은평구
비전뜰 도서관,서울특별시,은평구,작은도서관,월요일법정공휴일,14:00,17:00,12:00,17:00,09:00,15:00,18,4245,1,0,3,14,서울특별시 은평구 통일로92길 6,,02-388-4741,,,,37.62596114,126.9208331,2021-04-01,3110000,서울특별시 은평구
다니엘 작은도서관,서울특별시,은평구,작은도서관,"토,일요일       법정공휴일",13:00,17:00,00:00,00:00,00:00,00:00,23,4114,5,24,2,7,서울특별시 은평구 연서로41길 13-3 부림교회,,02-385-0664,,,,37.62578369,126.9275146,2021-04-01,3110000,서울특별시 은평구
숲속작은도서관,서울특별시,관악구,작은도서관,화+공휴일,10:00,18:00,10:00,17:00,00:00,00:00,20,3070,0,0,5,14,서울특별시 관악구 관악산나들길 114,서울특별시 관악구청,070-4118-6154,,,http://lib.gwanak.go.kr/,37.458841,126.9466795,2022-10-15,3200000,서울특별시 관악구
책이랑놀이랑,서울특별시,관악구,작은도서관,화+공휴일,09:00,18:00,09:00,17:00,00:00,00:00,35,13253,13,433,8,14,서울특별시 관악구 행운1길 12 2층,서울특별시 관악구청,02-878-0955,380.0,902.0,http://lib.gwanak.go.kr/,37.479992,126.958588,2022-10-15,3200000,서울특별시 관악구
책쉼터,서울특별시,관악구,작은도서관,일+공휴일,10:00,18:00,10:00,17:00,00:00,00:00,20,3723,0,0,2,7,서울특별시 관악구 낙성대로3길 37,서울특별시 관악구청,00-000-0000,10.0,6985.0,http://lib.gwanak.go.kr/,37.47306731,126.9603153,2022-10-15,3200000,서울특별시 관악구
낙성대공원도서관,서울특별시,관악구,작은도서관,화+공휴일,09:00,18:00,09:00,17:00,00:00,00:00,39,7634,16,106,5,14,서울특별시 관악구 낙성대로 77,서울특별시 관악구청,02-872-5575,155.0,114.0,http://lib.gwanak.go.kr/,37.47197208,126.959371,2022-10-15,3200000,서울특별시 관악구
하난곡작은도서관,서울특별시,관악구,작은도서관,화+공휴일,09:00,18:00,09:00,17:00,00:00,00:00,38,15065,17,668,5,14,서울특별시 관악구 난우10가길 20-7,서울특별시 관악구청,02-868-8994,198.0,358.0,http://lib.gwanak.go.kr/,37.47683046,126.919945,2022-10-15,3200000,서울특별시 관악구
용꿈꾸는 작은도서관,서울특별시,관악구,작은도서관,일+공휴일,09:00,22:00,09:00,17:00,00:00,00:00,75,20594,26,419,5,14,서울특별시 관악구 관악로 145,서울특별시 관악구청,02-889-8823,132.0,230.0,http://lib.gwanak.go.kr/,37.47821067,126.9515012,2022-10-15,3200000,서울특별시 관악구
도림천에서 용나는 작은도서관,서울특별시,관악구,작은도서관,화+공휴일,09:00,18:00,09:00,17:00,00:00,00:00,12,6935,3,127,5,14,서울특별시 관악구 신림로 297,서울특별시 관악구청,02-877-2722,,43.8,http://lib.gwanak.go.kr/,37.4810115,126.929827,2022-10-15,3200000,서울특별시 관악구
꿈나무 영유아도서관,서울특별시,관악구,작은도서관,화+공휴일,09:00,18:00,09:00,17:00,00:00,00:00,50,7018,0,241,5,14,서울특별시 관악구 신림로3길 35,서울특별시 관악구청,02-828-5721,,,http://lib.gwanak.go.kr/,37.46759765,126.9448709,2022-10-15,3200000,서울특별시 관악구
서울대입구역 U-도서관,서울특별시,관악구,작은도서관,공휴일,06:00,23:59,06:00,23:59,00:00,00:00,0,144,0,0,5,14,서울특별시 관악구 남부순환로 지하 1822,서울특별시 관악구청,00-000-0000,,,http://lib.gwanak.go.kr/,37.48115266,126.9526451,2022-10-15,3200000,서울특별시 관악구
신대방역 U-도서관,서울특별시,관악구,작은도서관,공휴일,06:00,23:59,06:00,23:59,00:00,00:00,0,48,0,0,5,14,서울특별시 동작구 대림로 2(신대방역),서울특별시 관악구청,00-000-0000,,,http://lib.gwanak.go.kr/,37.48757597,126.9131756,2022-10-15,3200000,서울특별시 관악구
행신어린이도서관,경기도,고양시,어린이도서관,두 번째 월+네 번째 월+법정공휴일(일요일 제외),09:00,18:00,09:00,18:00,09:00,18:00,0,101468,45,970,7,14,경기도 고양시 덕양구 소원로181번길 42(행신동),경기도 고양시청,031-8075-9278,1050.5,1687.72,https://www.goyanglib.or.kr/MH/index.do,37.614791,126.843466,2023-03-28,3940000,경기도 고양시
호수공원작은도서관,경기도,고양시,작은도서관,월+일+둘째 주 화+법정공휴일,10:00,19:00,10:00,19:00,00:00,00:00,0,7507,8,0,5,14,경기도 고양시 일산동구 호수로 595(장항동),책과도서관,031-901-2375,52.0,52.0,https://facebook.com/goyanghosoolib,37.653846,126.768781,2023-03-28,3940000,경기도 고양시
화전작은도서관,경기도,고양시,작은도서관,일+첫째 주 월+첫째 주 토+셋째 주 토+다섯째 주 토+법정공휴일,10:00,18:00,10:00,14:00,00:00,00:00,0,19271,8,417,5,14,경기도 고양시 덕양구 화랑로 1-1(화전동),경기도 고양시 화전동 주민자치위원회,02-3159-2266,100.0,100.0,https://cafe.naver.com/hjslib,37.599469,126.872773,2023-03-28,3940000,경기도 고양시
화정도서관,경기도,고양시,공공도서관,두 번째 월+네 번째 월+법정공휴일(일요일 제외),09:00,22:00,09:00,18:00,09:00,18:00,0,152409,220,5186,7,14,경기도 고양시 덕양구 은빛로77번길 8(화정동),경기도 고양시청,031-8075-9215,4149.3,4580.1,https://www.goyanglib.or.kr/ME/index.do,37.637836,126.837104,2023-03-28,3940000,경기도 고양시
크레파스작은도서관,울산광역시,동구,작은도서관,토+일+월+공휴일,13:00,17:00,00:00,00:00,00:00,00:00,20,3038,0,0,10,14,울산광역시 동구 동해안로 98,예닮교회,052-235-1040,,50.0,,,,2023-04-25,3710000,울산광역시 동구
화정어린이도서관,경기도,고양시,어린이도서관,첫 번째 월+세 번째 월+법정공휴일(일요일 제외),09:00,18:00,09:00,18:00,09:00,18:00,0,101109,29,1137,7,14,경기도 고양시 덕양구 화신로 323(화정동),경기도 고양시청,031-8075-9299,1002.1,1688.7,https://www.goyanglib.or.kr/MI/index.do,37.632833,126.826303,2023-03-28,3940000,경기도 고양시
부산연탄은행 마르지 않는 샘,부산광역시,서구,작은도서관,"매주토요일, 일요일, 국가지정공휴일",09:00,18:00,00:00,00:00,00:00,00:00,14,4180,0,0,5,7,부산광역시 서구 구덕로157번길 33-1,부산연탄은행,051-246-2464,,57.67,,35.09870125,129.0180972,2022-10-13,3260000,부산광역시 서구
부산대학교병원 작은(쌈지) 도서관,부산광역시,서구,작은도서관,"매주토요일, 일요일, 국가지정공휴일",09:00,17:30,00:00,00:00,00:00,00:00,12,2500,0,0,2,7,부산광역시 서구 구덕로 179,부산대학교병원,051-240-7494,,55.2,,35.101053,129.019223,2022-10-13,3260000,부산광역시 서구
숲속어린이작은도서관,부산광역시,서구,작은도서관,"매주월요일, 국가지정공휴일",09:30,17:30,09:30,17:30,00:00,00:00,30,3700,0,0,5,14,부산광역시 서구 꽃마을로163번길 73,부산광역시 서구청,051-240-4168,,239.0,,35.126120439,129.004430087,2022-10-13,3260000,부산광역시 서구
관악중앙도서관,서울특별시,관악구,공공도서관,화+공휴일,07:00,23:00,09:00,22:00,00:00,00:00,510,198650,64,26348,5,14,서울특별시 관악구 신림로3길 35(신림동),서울특별시 관악구청,02-828-5700,7349.0,14279.0,http://lib.gwanak.go.kr/,37.46759765,126.9448709,2022-10-15,3200000,서울특별시 관악구
글빛정보도서관,서울특별시,관악구,공공도서관,수+공휴일,09:00,23:00,09:00,22:00,00:00,00:00,136,66137,56,2341,5,14,서울특별시 관악구 관악로 30길 23,서울특별시 관악구청,02-878-7460,351.0,693.0,http://lib.gwanak.go.kr/,37.486252,126.959668,2022-10-15,3200000,서울특별시 관악구
성현동작은도서관,서울특별시,관악구,공공도서관,화+공휴일,09:00,19:00,09:00,17:00,00:00,00:00,60,52273,44,2098,5,14,서울특별시 관악구 관악로 37길 56,서울특별시 관악구청,02-877-7182,,1974.0,http://lib.gwanak.go.kr/,37.48731296,126.9561835,2022-10-15,3200000,서울특별시 관악구
은천동작은도서관,서울특별시,관악구,공공도서관,화+공휴일,09:00,20:00,09:00,17:00,00:00,00:00,89,46522,45,1516,5,14,서울특별시 관악구 봉천로 33나길 30,서울특별시 관악구청,02-877-1162,1075.0,2974.0,http://lib.gwanak.go.kr/,37.48530456,126.942434,2022-10-15,3200000,서울특별시 관악구
조원작은도서관,서울특별시,관악구,공공도서관,수+공휴일,09:00,20:00,09:00,17:00,00:00,00:00,210,62207,62,4748,5,14,서울특별시 관악구 조원로 12길 25,서울특별시 관악구청,02-851-5571,801.0,2668.0,http://lib.gwanak.go.kr/,37.48256328,126.907773,2022-10-15,3200000,서울특별시 관악구
캐슬도서관,대구광역시,달서구,작은도서관,월+화+금+토+일+법정공휴일,14:00,16:00,00:00,00:00,00:00,00:00,16,5321,0,0,3,7,대구광역시 달서구 상화로58길 86(도원동 677-1),,053-644-0843,,109.55,,35.80463244,128.5487042,2023-03-31,3470000,대구광역시 달서구
예가도서관,대구광역시,달서구,작은도서관,토+일+법정공휴일,14:00,18:00,00:00,00:00,00:00,00:00,66,11941,2,31,2,7,대구광역시 달서구 조암남로32길 13(유천동 42),,070-8843-6646,,90.75,,35.81793843,128.5153037,2023-03-31,3470000,대구광역시 달서구
두산미소도서관,대구광역시,달서구,작은도서관,토+일+법정공휴일,13:30,17:30,00:00,00:00,00:00,00:00,12,7145,2,0,5,5,대구광역시 달서구 당산로 82 (성당동),,070-8196-9811,,43.0,,35.84489764,128.546137,2023-03-31,3470000,대구광역시 달서구
새하늘작은도서관,대구광역시,달서구,작은도서관,월+일+법정공휴일,10:00,18:00,10:00,18:00,00:00,00:00,24,4773,0,3,3,7,대구광역시 달서구 도원로서길 7 (도원동),,053-634-1530,,34.65,,35.80775982,128.5347948,2023-03-31,3470000,대구광역시 달서구
책으로꿈꾸는작은도서관,대구광역시,달서구,작은도서관,토+일+법정공휴일,13:30,18:00,00:00,00:00,00:00,00:00,12,6489,1,0,3,8,대구광역시 달서구 용산로 160,,053-565-7900,,42.3,,35.84986759,128.5312919,2023-03-31,3470000,대구광역시 달서구
월성e-편한세상작은도서관,대구광역시,달서구,작은도서관,토+일+법정공휴일,14:00,16:00,00:00,00:00,00:00,00:00,16,11000,0,0,5,7,대구광역시 달서구 조암남로 10(월성동),,053-639-5780,,53.2,,35.82464895,128.5291202,2023-03-31,3470000,대구광역시 달서구
감새미작은도서관,대구광역시,달서구,작은도서관,일+법정공휴일,14:00,19:00,11:00,15:00,00:00,00:00,50,10565,0,500,2,7,대구광역시 달서구 당산로21길 17(감삼동),,053-624-2605,,63.0,,35.84707944,128.5440265,2023-03-31,3470000,대구광역시 달서구
작은빛도서관,대구광역시,달서구,작은도서관,토+일+법정공휴일,14:00,20:00,00:00,00:00,00:00,00:00,20,4000,3,0,3,10,대구광역시 달서구 구마로 176(본동),,053-559-0303,,60.0,,35.83686255,128.547067,2023-03-31,3470000,대구광역시 달서구
삼호도서관,전라남도,영암군,공공도서관,국경일+명절연휴+개관기념일(12월 14일)+휴관이 필요한 경우,08:00,22:00,08:00,22:00,08:00,22:00,494,120677,10,18707,3,718,전라남도 영암군 삼호읍 삼호중앙로 140,전라남도 영암군청,061-470-6832,4221.0,2371.0,https://www.yeongam.go.kr/home/library,34.7448016,126.4665346129,2023-04-10,4940000,전라남도 영암군
학산도서관,전라남도,영암군,공공도서관,국경일+명절연휴+개관기념일+휴관이 필요한 경우,08:00,22:00,08:00,22:00,08:00,22:00,97,9951,0,161,3,717,전라남도 영암군 학산면 영산로 36,전라남도 영암군청,061-470-6436,3337.0,829.65,https://www.yeongam.go.kr/home/library,34.726471,126.567256,2023-04-10,4940000,전라남도 영암군
남목도서관,울산광역시,동구,공공도서관,월,09:00,18:00,09:00,18:00,09:00,18:00,174,19378,28,380,5,14,울산광역시 동구 남목12길 10,울산광역시동구청,052-209-4580,,95401.0,https://library.donggu.ulsan.kr,35.545311,129.426761,2023-04-25,3710000,울산광역시 동구
울산동부도서관,울산광역시,동구,공공도서관,월,09:00,22:00,09:00,22:00,09:00,22:00,654,263996,599,41187,5,14,울산광역시 동구 봉수로 505(서부동),울산광역시교육청,052-241-2300,,3375.0,https://www.usdl.or.kr,35.52820466,129.4250753,2023-04-25,3710000,울산광역시 동구
꽃바위작은도서관,울산광역시,동구,작은도서관,월,10:00,18:00,10:00,18:00,10:00,18:00,25,26063,4,520,5,14,울산광역시 동구 문현3길 6(꽃바위문화관 1층),울산광역시동구청,052-209-4337,,216.0,https://library.donggu.ulsan.kr,35.48705831,129.4112636,2023-04-25,3710000,울산광역시 동구
화정작은도서관,울산광역시,동구,작은도서관,월,10:00,18:00,10:00,18:00,10:00,18:00,20,20340,4,798,5,14,울산광역시 동구 대송로 140(화정주민센터 1층),울산광역시동구청,052-209-3950,,1078.0,https://library.donggu.ulsan.kr,35.49586711,129.4225846,2023-04-25,3710000,울산광역시 동구
동부도서관,경상남도,고성군,공공도서관,월요일+국가지정 공휴일,09:00,21:00,09:00,21:00,09:00,21:00,100,34552,3,3380,3,21,경상남도 고성군 회화면 관인로44번길26-5,경상남도 고성군,055-670-2916,1134.0,997.0,,35.05729021,128.3726389,2022-06-14,6480000,경상남도
화전도서관,경상남도,남해군,공공도서관,설+추석연휴,09:00,22:00,09:00,22:00,09:00,22:00,170,52500,27,819,4,14,경상남도 남해군 남해읍 망운로 30번길 9,경상남도 남해군,055-860-3865,2435.0,2349.0,https://www.namhae.go.kr/lib/Index.do,34.83891845,127.8906766,2022-06-14,6480000,경상남도
충청북도교육도서관 충청북도교육도서관,충청북도,청주시,공공도서관,"매주 월요일, 공휴일",08:00,23:00,08:00,23:00,00:00,00:00,633,629434,553,32523,5,21,충청북도 청주시 서원구 충렬로 19,충청북도교육도서관,043-276-8305,12646.0,9031.0,www.cbelib.go.kr,36.63274636,127.477814,2020-07-07,8000448,충청북도교육청 충청북도교육도서관
광명도서관,경기도,광명시,공공도서관,"매주 금요일, 국가지정공휴일",07:00,23:00,07:00,23:00,00:00,00:00,1009,250196,232,27389,7,21,경기도 광명시 원광명안로 48,경기도 광명시,02-2680-6541,5027.0,9966.0,gmlib.gm.go.kr,37.4652995,126.8514147,2023-05-08,3900000,경기도 광명시
연서도서관,경기도,광명시,공공도서관,"매주 금요일, 국가지정공휴일",09:00,22:00,09:00,17:00,00:00,00:00,272,44571,85,1187,7,21,경기도 광명시 연서일로10,경기도 광명시,02-2680-6630,1587.0,845.0,gmlib.gm.go.kr,37.482798,126.8646514,2023-05-08,3900000,경기도 광명시
정산도서관,충청남도,청양군,공공도서관,월+법정공휴일+국경일,09:00,21:00,09:00,21:00,09:00,18:00,120,37934,20,832,37934,14,충청남도 청양군 정산면 역말길 5-5,충청남도 청양군청,041-940-2555,6616.0,1762.0,https://www.cheongyang.go.kr/lib.do,36.41292247,126.9513219,2023-05-26,4590000,충청남도 청양군
태백시립도서관,강원도,태백시,공공도서관,월+법정공휴일+12월31일,00:00,22:00,09:00,22:00,00:00,00:00,184,118027,28,5351,5,14,강원도 태백시 평화길 12,강원도 태백시,033-550-2755,1293.0,1159.64,www.taebaek.go.kr/lib,37.09970349,129.0219603,2023-05-25,4220000,강원도 태백시
태백산소드림도서관,강원도,태백시,공공도서관,금+법정공휴일+12월31일,00:00,22:00,09:00,22:00,00:00,00:00,115,40214,29,0,5,14,강원도 태백시 장수길 33,강원도 태백시,033-550-2757,1361.0,908.26,www.taebaek.go.kr/lib,37.17996988,128.984964,2023-05-25,4220000,강원도 태백시
성동구립금호도서관,서울특별시,성동구,공공도서관,월+법정공휴일,07:00,22:00,09:00,20:00,09:00,18:00,204,88391,59,4288,5,14,서울특별시 성동구 금호동1가 난계로 20 금호작은도서관,재단법인 성동문화재단,02-2204-6450,863.0,1517.0,,37.55412846,127.0248932,2022-08-25,3030000,서울특별시 성동구
성동구립도서관,서울특별시,성동구,공공도서관,월+법정공휴일,07:00,22:00,07:00,22:00,09:00,18:00,542,228727,107,8941,5,14,서울특별시 성동구 행당동 고산자로10길 9 성동문화정보센터,재단법인 성동문화재단,02-2204-6420,1894.0,5692.0,,37.55917871,127.0349587,2022-08-25,3030000,서울특별시 성동구
성동구립무지개도서관,서울특별시,성동구,공공도서관,월+법정공휴일,09:00,21:00,09:00,21:00,09:00,21:00,148,43553,27,1585,5,14,서울특별시 성동구 행당동 고산자로 270 성동구청,재단법인 성동문화재단,02-2286-6025,469.0,469.0,,37.5631893,127.0370738,2022-08-25,3030000,서울특별시 성동구
성동구립성수도서관,서울특별시,성동구,공공도서관,월+법정공휴일,08:00,23:00,09:00,20:00,09:00,18:00,212,50929,34,2217,5,14,서울특별시 성동구 뚝섬로 1길 43,재단법인 성동문화재단,02-2204-7592,1014.0,9726.0,,37.54542892,127.0469471,2022-08-25,3030000,서울특별시 성동구
성동구립용답도서관,서울특별시,성동구,공공도서관,월+법정공휴일,07:00,22:00,09:00,20:00,09:00,18:00,217,83123,38,3797,5,14,서울특별시 성동구 용답동 용답중앙3길 10 성동구립용답도서관,재단법인 성동문화재단,02-2204-6470,629.0,1482.0,,37.56670146,127.051314,2022-08-25,3030000,서울특별시 성동구
이지더원5차작은도서관,경상남도,양산시,작은도서관,토요일+법정공휴일,16:00,20:00,00:00,00:00,00:00,00:00,48,6107,0,0,3,14,경상남도 양산시 물금읍 물금로 57,,,166.0,166.0,https://lib.yangsan.go.kr/YS/main.do,35.31228805,128.9891399,2022-09-23,5380000,경상남도 양산시
이지더원리버포레작은도서관,경상남도,양산시,작은도서관,토요일+법정공휴일,13:00,19:00,00:00,00:00,00:00,00:00,37,4422,0,0,10,7,경상남도 양산시 동면 금오16길 100,,,92.0,92.0,https://lib.yangsan.go.kr/YS/main.do,35.32289349,129.0271156,2022-09-23,5380000,경상남도 양산시
이편한마을작은도서관,경상남도,양산시,작은도서관,토요일+법정공휴일,12:00,17:00,00:00,00:00,00:00,00:00,50,6745,0,0,5,14,경상남도 양산시 동면 금오16길 65,,070-7345-0053,98.0,98.0,https://lib.yangsan.go.kr/YS/main.do,35.32130373,129.0285098,2022-09-23,5380000,경상남도 양산시
천성리버작은도서관,경상남도,양산시,작은도서관,토요일+법정공휴일,12:00,18:00,00:00,00:00,00:00,00:00,32,10714,0,0,5,10,경상남도 양산시 소주회야로 75,,055-362-6150,80.0,80.0,https://lib.yangsan.go.kr/YS/main.do,35.41202258,129.1599633,2022-09-23,5380000,경상남도 양산시
청어람아파트새마을문고,경상남도,양산시,작은도서관,토요일+법정공휴일,10:00,17:00,00:00,00:00,00:00,00:00,52,8312,0,0,5,7,경상남도 양산시 양주로 94,,055-366-8831,130.0,130.0,https://lib.yangsan.go.kr/YS/main.do,35.33183999,129.0337547,2022-09-23,5380000,경상남도 양산시
코아루 작은도서관,경상남도,양산시,작은도서관,토요일+법정공휴일,14:00,18:00,00:00,00:00,00:00,00:00,50,13829,0,0,2,3,경상남도 양산시 평산북로 54,,055-388-4105,113.0,113.0,https://lib.yangsan.go.kr/YS/main.do,35.38978336,129.1497054,2022-09-23,5380000,경상남도 양산시
한내들작은도서관,경상남도,양산시,작은도서관,토요일+법정공휴일,14:00,18:00,00:00,00:00,00:00,00:00,43,9859,0,0,2,14,경상남도 양산시 삼호로 98,,055-363-5515,69.0,69.0,https://lib.yangsan.go.kr/YS/main.do,35.40717595,129.1760116,2022-09-23,5380000,경상남도 양산시
한일양지뜸작은도서관,경상남도,양산시,작은도서관,토요일+법정공휴일,14:00,18:00,00:00,00:00,00:00,00:00,48,12121,0,0,6,7,경상남도 양산시 평산로 116,,055-364-2260,72.0,72.0,https://lib.yangsan.go.kr/YS/main.do,35.38209682,129.1413987,2022-09-23,5380000,경상남도 양산시
행복작은도서관,경상남도,양산시,작은도서관,토요일+법정공휴일,12:00,18:00,00:00,00:00,00:00,00:00,46,8794,0,0,5,14,경상남도 양산시 물금읍 서들로 179,,070-7398-7620,110.0,110.0,https://lib.yangsan.go.kr/YS/main.do,35.31430681,129.007337,2022-09-23,5380000,경상남도 양산시
화성파크드림작은도서관,경상남도,양산시,작은도서관,토요일+법정공휴일,14:00,18:00,00:00,00:00,00:00,00:00,45,6896,0,0,5,14,경상남도 양산시 대운5길 7,,055-362-4008,203.0,203.0,https://lib.yangsan.go.kr/YS/main.do,35.40098695,129.172274,2022-09-23,5380000,경상남도 양산시
황전새마을작은도서관,경상남도,양산시,작은도서관,일요일+법정공휴일,14:00,18:00,10:00,12:00,00:00,00:00,45,12120,0,0,5,7,경상남도 양산시 물금읍 오봉로 15,,055-385-3149,148.0,148.0,https://lib.yangsan.go.kr/YS/main.do,35.3262315,128.9982805,2022-09-23,5380000,경상남도 양산시
휴먼빌둥지작은도서관,경상남도,양산시,작은도서관,토요일+법정공휴일,14:00,18:00,00:00,00:00,00:00,00:00,30,11880,0,0,5,14,경상남도 양산시 물금읍 범어로 13,,055-385-5310,46.0,46.0,https://lib.yangsan.go.kr/YS/main.do,35.33234211,129.0109932,2022-09-23,5380000,경상남도 양산시
청주옥산도서관,충청북도,청주시,공공도서관,월+국가지정 공휴일,09:00,22:00,09:00,18:00,09:00,18:00,47,68370,40,1351,5,15,충청북도 청주시 흥덕구 옥산면 오산5길 10,청주시 도서관평생학습본부,043-201-4212,9881.4,666.08,http://library.cheongju.go.kr/lib-ok/index.do,36.66608798,127.3693933,2022-10-01,6430000,충청북도
청주신율봉도서관,충청북도,청주시,공공도서관,금+국가지정 공휴일,09:00,18:00,09:00,18:00,09:00,18:00,121,77271,23,47,5,15,충청북도 청주시 흥덕구 신율로153번길 16,청주시 도서관평생학습본부,043-201-4225,1236.9,990.64,https://library.cheongju.go.kr/lib-sy/index.do,36.63143685,127.4464952,2022-10-01,6430000,충청북도
청주시립도서관,충청북도,청주시,공공도서관,월+국가지정 공휴일,09:00,22:00,09:00,18:00,09:00,18:00,662,282424,164,7592,5,15,충청북도 청주시 상당구 용암로 55,청주시 도서관평생학습본부,043-201-4062,11040.5,5370.0,http://library.cheongju.go.kr/lib-cj/index.do,36.61238784,127.5058025,2022-10-01,6430000,충청북도
청주상당도서관,충청북도,청주시,공공도서관,월+국가지정 공휴일,09:00,22:00,09:00,18:00,09:00,18:00,330,132300,69,8,5,15,충청북도 청주시 상당구 대성로 195,청주시 도서관평생학습본부,043-201-4103,3807.0,2681.0,http://library.cheongju.go.kr/lib-sd/index.do,36.64282749,127.4912767,2022-10-01,6430000,충청북도
청주청원도서관,충청북도,청주시,공공도서관,금+국가지정 공휴일,09:00,22:00,09:00,18:00,09:00,18:00,392,148437,75,47,5,15,충청북도 청주시 청원구 사뜸로61번길 88-14,청주시 도서관평생학습본부,043-201-4126,6896.0,2623.03,http://library.cheongju.go.kr/lib-cw/index.do,36.66629777,127.4749426,2022-10-01,6430000,충청북도
청주오창호수도서관,충청북도,청주시,공공도서관,월+국가지정 공휴일,09:00,22:00,09:00,18:00,09:00,18:00,430,127888,74,2521,5,15,충청북도 청주시 청원구 오창읍 오창공원로 102,청주시 도서관평생학습본부,043-201-4096,9368.0,8338.5,http://library.cheongju.go.kr/lib-hs/index.do,36.71294872,127.4238786,2022-10-01,6430000,충청북도
성동구립청계도서관,서울특별시,성동구,공공도서관,월+법정공휴일,09:00,20:00,09:00,20:00,00:00,00:00,209,49391,33,935,5,14,서울특별시 성동구 상왕십리동 마장로 141,재단법인 성동문화재단,02-2204-7580,1920.0,1189.55,,37.56787393,127.0255271,2022-08-25,3030000,서울특별시 성동구
성동자활센터푸른하늘공부방청소년작은도서관,서울특별시,성동구,공공도서관,토+일+법정공휴일,10:00,20:00,00:00,00:00,00:00,00:00,30,1803,1,0,3,14,서울특별시 성동구 금호동4가 독서당로 272 금호동 대우 아파트 203동,서울특별시 성동구,070-4920-8859,125.0,125.0,,37.54670017,127.0227395,2022-08-25,3030000,서울특별시 성동구
성수1가제1동작은도서관,서울특별시,성동구,공공도서관,토+일+법정공휴일,09:00,18:00,00:00,00:00,00:00,00:00,20,7706,1,0,3,14,서울특별시 성동구 뚝섬로 3길 18 (성수동1가),서울특별시 성동구,02-2286-7422,60.0,60.0,,37.542037,127.049686,2022-08-25,3030000,서울특별시 성동구
성수1가제2동어린이작은도서관,서울특별시,성동구,공공도서관,토+일+법정공휴일,10:00,17:00,00:00,00:00,00:00,00:00,16,3906,1,0,3,14,서울특별시 성동구 성수동1가 왕십리로5길 3,서울특별시 성동구,02-2286-7443,35.0,35.0,,37.546403,127.0443495,2022-08-25,3030000,서울특별시 성동구
성수2가제1동어린이작은도서관,서울특별시,성동구,공공도서관,토+일+법정공휴일,09:00,18:00,00:00,00:00,00:00,00:00,30,7656,1,0,3,14,서울특별시 성동구 성수동2가 뚝섬로 385-19 성수2가제1동주민센터,서울특별시 성동구,02-2286-7478,59.0,59.0,,37.539501,127.054051,2022-08-25,3030000,서울특별시 성동구
성수2가제3동작은도서관,서울특별시,성동구,공공도서관,토+일+법정공휴일,10:00,18:00,00:00,00:00,00:00,00:00,14,10968,1,0,3,14,서울특별시 성동구 성수동2가 광나루로2길 35 성수2가제3동주민센터,서울특별시 성동구,02-2286-7484,99.0,99.0,,37.54822203,127.0552459,2022-08-25,3030000,서울특별시 성동구
송정동늘푸른작은도서관,서울특별시,성동구,공공도서관,토+일+법정공휴일,10:00,17:00,00:00,00:00,00:00,00:00,6,5713,1,0,3,14,서울특별시 성동구 송정동 송정14길 19 송정동주민자치센터,서울특별시 성동구,02-2286-7509,29.0,29.0,,37.55101176,127.068522,2022-08-25,3030000,서울특별시 성동구
옥수동북카페,서울특별시,성동구,공공도서관,토+일+법정공휴일,09:00,18:00,00:00,00:00,00:00,00:00,16,3861,1,0,3,14,서울특별시 성동구 독서당로 203,서울특별시 성동구,02-2286-7418,24.0,24.0,,37.543671,127.013486,2022-08-25,3030000,서울특별시 성동구
왕십리도선동희망문고,서울특별시,성동구,공공도서관,토+일+법정공휴일,10:00,18:00,00:00,00:00,00:00,00:00,35,6626,1,0,3,14,서울특별시 성동구 상왕십리동 마장로 141,서울특별시 성동구,02-2286-7214,99.35,99.35,,37.56787393,127.0255271,2022-08-25,3030000,서울특별시 성동구
왕십리제2동작은도서관,서울특별시,성동구,공공도서관,토+일+법정공휴일,09:00,18:00,00:00,00:00,00:00,00:00,12,3038,1,0,3,14,서울특별시 성동구 무학봉길 69 (하왕십리동),서울특별시 성동구,02-2286-7223,50.58,50.58,,37.56104233,127.0305130428,2022-08-25,3030000,서울특별시 성동구
용답동어린이작은도서관,서울특별시,성동구,공공도서관,토+일+법정공휴일,10:00,17:00,00:00,00:00,00:00,00:00,20,6152,1,0,3,14,서울특별시 성동구 용답동 용답중앙23길 20 용답동주민센터,서울특별시 성동구,02-2286-7523,103.0,103.0,,37.564066,127.055517,2022-08-25,3030000,서울특별시 성동구
응봉동어린이작은도서관,서울특별시,성동구,공공도서관,토+일+법정공휴일,10:00,17:00,00:00,00:00,00:00,00:00,18,6378,1,0,3,14,서울특별시 성동구 응봉동 독서당로 424,서울특별시 성동구,02-2286-7335,84.0,84.0,,37.553118,127.033401,2022-08-25,3030000,서울특별시 성동구
행당제2동어린이작은도서관,서울특별시,성동구,공공도서관,토+일+법정공휴일,09:00,18:00,00:00,00:00,00:00,00:00,40,11759,1,0,3,14,서울특별시 성동구 행당동 행당로9길 9 행당제2동주민센터,서울특별시 성동구,02-2286-7567,100.0,100.0,,37.55810983,127.0294148,2022-08-25,3030000,서울특별시 성동구
양산타워작은도서관,경상남도,양산시,작은도서관,연중무휴,10:00,21:00,10:00,21:00,10:00,21:00,85,9971,0,0,0,0,경상남도 양산시 동면 강변로 264,,055-367-9029,320.0,320.0,https://lib.yangsan.go.kr/YS/main.do,35.32591877,129.0240131,2022-09-23,5380000,경상남도 양산시
양우센트럴작은도서관,경상남도,양산시,작은도서관,토요일+법정공휴일,13:00,18:00,00:00,00:00,00:00,00:00,69,3200,0,0,2,7,경상남도 양산시 물금읍 야리로 89,,,65.0,65.0,https://lib.yangsan.go.kr/YS/main.do,35.31269875,129.0067066,2022-09-23,5380000,경상남도 양산시
에버빌작은도서관,경상남도,양산시,작은도서관,토요일+법정공휴일,14:00,18:00,00:00,00:00,00:00,00:00,42,7800,0,0,5,14,경상남도 양산시 물금읍 신주로 64,,070-4155-3838,72.0,72.0,https://lib.yangsan.go.kr/YS/main.do,35.33064344,129.0159212,2022-09-23,5380000,경상남도 양산시
옹달샘작은도서관,경상남도,양산시,작은도서관,법정공휴일,10:00,22:00,10:00,18:00,00:00,00:00,35,10444,0,0,3,7,경상남도 양산시 상북면 감결길 17,,070-8828-4553,77.0,77.0,https://lib.yangsan.go.kr/YS/main.do,35.38821068,129.0479878,2022-09-23,5380000,경상남도 양산시
우남작은도서관,경상남도,양산시,작은도서관,토요일+법정공휴일,14:00,18:00,00:00,00:00,00:00,00:00,53,7497,0,0,5,14,경상남도 양산시 물금읍 신주로 36,,070-8166-6108,206.0,206.0,https://lib.yangsan.go.kr/YS/main.do,35.33321246,129.0153248,2022-09-23,5380000,경상남도 양산시
우리동네작은도서관,경상남도,양산시,작은도서관,월요일+법정공휴일,14:00,18:00,14:00,18:00,00:00,00:00,17,16287,0,0,3,7,경상남도 양산시 상북면 삼계1길 6,,055-375-2681,66.0,66.0,https://lib.yangsan.go.kr/YS/main.do,35.41704368,129.061709,2022-09-23,5380000,경상남도 양산시
우미마을작은도서관,경상남도,양산시,작은도서관,토요일+법정공휴일,10:00,18:00,00:00,00:00,00:00,00:00,49,5800,0,0,5,14,경상남도 양산시 물금읍 범어로 77,,055-365-2588,184.0,184.0,https://lib.yangsan.go.kr/YS/main.do,35.32868139,129.0155902,2022-09-23,5380000,경상남도 양산시
우방아이유쉘작은도서관,경상남도,양산시,작은도서관,법정공휴일,14:00,18:00,10:00,12:00,00:00,00:00,44,9374,0,0,5,14,경상남도 양산시 신기강변1길 11,,055-383-2690,72.0,72.0,https://lib.yangsan.go.kr/YS/main.do,35.35100899,129.0346829,2022-09-23,5380000,경상남도 양산시
웅상신원아침도시작은도서관,경상남도,양산시,작은도서관,토요일+법정공휴일,14:00,18:00,00:00,00:00,00:00,00:00,24,7347,0,0,2,14,경상남도 양산시 대평들5길 16,,055-362-4666,108.0,108.0,https://lib.yangsan.go.kr/YS/main.do,35.4158793,129.163175,2022-09-23,5380000,경상남도 양산시
이지더원2차그랜드파크작은도서관,경상남도,양산시,작은도서관,토요일+법정공휴일,13:00,17:00,00:00,00:00,00:00,00:00,70,3620,0,0,5,14,경상남도 양산시 물금읍 물금로 75,,,313.0,313.0,https://lib.yangsan.go.kr/YS/main.do,35.31299194,128.9896498,2022-09-23,5380000,경상남도 양산시
초강초등학교 도서관,충청북도,영동군,학교도서관,토요일+일요일+공휴일,09:00,16:40,00:00,00:00,00:00,00:00,24,9616,0,29,3,7,충청북도 영동군 초강면 초강로 97,충청북도 영동군 초강초등학교,043-742-6260,1962.0,95.0,,36.2165728,127.7145748,2022-06-16,4440000,충청북도 영동군
추풍령초등학교학교도서관,충청북도,영동군,학교도서관,토요일+일요일+공휴일,08:40,16:40,00:00,00:00,00:00,00:00,45,12239,0,63,5,21,충청북도 영동군 추풍령면 추풍령로2길 7,충청북도 영동군 추풍령초등학교,043-742-2781,,,,36.21507951,127.9966215,2022-06-16,4440000,충청북도 영동군
유니버시아드힐스테이트2단지작은도서관,광주광역시,서구,작은도서관,국가지정 공휴일,11:00,21:00,11:00,21:00,11:00,21:00,20,3227,0,0,5,14,광주광역시 서구 화운로 211,힐스테이트2단지 입주자대표회의,062-369-9420,,96.0,,35.15812209,126.8756205,2022-12-05,3600000,광주광역시 서구
작은도서관 꿈터,광주광역시,서구,작은도서관,일+국가지정 공휴일,12:00,21:00,12:00,21:00,12:00,21:00,10,7000,150,50,3,14,광주광역시 서구 화정동 염화로 115,작은도서관꿈터,062-372-3310,66.0,33.0,,35.14305882,126.8772098,2022-12-05,3600000,광주광역시 서구
작은도서관 두럭,광주광역시,서구,작은도서관,일+국가지정 공휴일,10:00,18:00,10:00,18:00,10:00,18:00,35,3600,0,0,3,14,광주광역시 서구 상무민주로 104,작은도서관두럭,062-371-3200,,50.0,,35.16004535,126.8601077,2022-12-05,3600000,광주광역시 서구
작은도서관 봄,광주광역시,서구,작은도서관,일+국가지정 공휴일,11:00,20:00,10:00,16:00,00:00,00:00,20,2172,0,0,3,7,광주광역시 서구 풍암신흥로 36,작은도서관 봄,062-457-0500,,66.0,,35.12038978,126.867179,2022-12-05,3600000,광주광역시 서구
작은도서관놀이정원,광주광역시,서구,작은도서관,일+국가지정 공휴일,10:00,15:00,10:00,15:00,00:00,00:00,8,1300,0,0,0,0,광주광역시 서구 화정로 179번길 24-18,마을을 사랑하는 사람들,,,61.23,,35.1471671,126.8770824,2022-12-05,3600000,광주광역시 서구
좋은씨앗작은도서관,광주광역시,서구,작은도서관,연중무휴,08:00,20:00,08:00,20:00,08:00,20:00,30,2416,2,0,2,5,광주광역시 서구 상무자유로181-7,좋은씨앗작은도서관,062-600-7004,,60.0,,35.152737,126.8538909,2022-12-05,3600000,광주광역시 서구
중앙나누리작은도서관,광주광역시,서구,작은도서관,월+국가지정 공휴일,09:00,18:00,09:00,18:00,09:00,18:00,60,4392,0,0,10,14,광주광역시 서구 화정로 189번길 25,광주중앙교회,062-717-9192,,238.0,http://cafe.daum.net/j-nanuri,35.14769933,126.8769669,2022-12-05,3600000,광주광역시 서구
지혜의샘,광주광역시,서구,작은도서관,목+국가지정 공휴일,09:00,18:00,09:00,18:00,09:00,18:00,40,6500,0,0,5,7,광주광역시 서구 풍암중앙로 86번길 2,충암중앙교회,062-652-1279,,221.0,,35.1261509,126.8832951,2022-12-05,3600000,광주광역시 서구
힐스테이트 데시앙 도남1단지 작은도서관(운영준비중),대구광역시,북구,작은도서관,운영준비중,00:00,00:00,00:00,00:00,00:00,00:00,6,1000,0,0,0,0,"대구광역시 북구 도남길 76(국우동,힐스테이트데시앙도남1단지)",,053-327-1692,,174.66,,35.955342,128.583389,2022-11-23,3450000,대구광역시 북구
경상북도교육청칠곡도서관,경상북도,칠곡군,공공도서관,월요일+관공서의 공휴일(일요일 제외),09:00,22:00,09:00,22:00,09:00,22:00,507,68686,98,3405,5,14,경상북도 칠곡군 왜관읍 군청3길 13,경상북도교육청칠곡도서관,054-971-1507,2428.0,1242.45,http://www.gbelib.kr/cg,35.99621938,128.4034752,2022-11-23,8941000,경상북도교육청 경상북도칠곡교육지원청
이야기꽃도서관,광주광역시,광산구,공공도서관,둘째 주 월+넷째 주 월+법정공휴일,09:00,18:00,09:00,17:00,00:00,00:00,274,51067,16,1343,5,15,광주광역시 광산구 선운중앙로67번길 6,광주광역시 광산구청,062-960-6827,3306.0,2900.0,http://lib.gwangsan.go.kr,35.148414,126.7798951,2022-10-07,6290000,광주광역시
광주학생독립운동기념회관,광주광역시,서구,공공도서관,첫째 주 월+셋째 주 월+법정공휴일+개관기념일(11월 3일),09:00,18:00,09:00,17:00,00:00,00:00,1424,228177,1159,3244,5,15,광주광역시 서구 학생독립로 30,광주광역시교육청,062-221-5500,65837.0,13783.0,https://lib.gen.go.kr/student,35.14058722,126.8650206,2022-10-07,6290000,광주광역시
금호평생교육관,광주광역시,남구,공공도서관,첫째 주 월+셋째 주 월+법정공휴일+개관기념일(4월 2일),09:00,18:00,09:00,17:00,00:00,00:00,678,160609,274,9232,5,15,광주광역시 남구 중앙로 15,광주광역시교육청,062-360-6600,6503.0,7002.0,https://lib.gen.go.kr/geumho,35.14546881,126.9006251,2022-10-07,6290000,광주광역시
광주학생교육문화회관,광주광역시,서구,공공도서관,둘째 주 월+넷째 주 월+법정공휴일+개관기념일(9월 3일),09:00,18:00,09:00,17:00,00:00,00:00,454,179034,934,10132,5,15,광주광역시 서구 상무민주로 61,광주광역시교육청,062-380-8800,205193.0,18350.0,https://lib.gen.go.kr/gecs,35.15574851,126.8585843,2022-10-07,6290000,광주광역시
광주중앙도서관,광주광역시,동구,공공도서관,둘째 주 월+넷째 주 월+법정공휴일+개관기념일(7월 2일),09:00,21:00,09:00,21:00,00:00,00:00,400,172517,26,8470,5,15,광주광역시 동구 장동로 23-16,광주광역시교육청,062-607-1300,3709.0,4011.0,https://lib.gen.go.kr/jungang,35.14838197,126.9252986,2022-10-07,6290000,광주광역시
광주중앙도서관 분관 최상준도서관,광주광역시,북구,공공도서관,둘째 주 월+넷째 주 월+법정공휴일+개관기념일(7월 2일),09:00,18:00,09:00,17:00,00:00,00:00,424,41644,28,576,5,15,광주광역시 북구 설죽로315번길 8,광주광역시교육청,062-576-8104,4045.0,2241.0,https://lib.gen.go.kr/seokbong,35.188331,126.897852,2022-10-07,6290000,광주광역시
광주송정도서관,광주광역시,광산구,공공도서관,둘째 주 월+넷째 주 월+법정공휴일+개관기념일(4월 10일),09:00,18:00,09:00,17:00,00:00,00:00,426,171630,55,1203,5,15,광주광역시 광산구 송정공원로 8-13,광주광역시교육청,062-940-8900,3360.0,3310.0,https://lib.gen.go.kr/songjung,35.14492618,126.7997822,2022-10-07,6290000,광주광역시
갈말도서관,강원도,철원군,공공도서관,월+공휴일,09:00,23:00,09:00,23:00,00:00,00:00,243,60427,43,1839,7,15,강원도 철원군 갈말읍 명성로 179번길 21,강원도 철원군,033-450-5227,2633.0,1568.5,http://cwglib.cwg.go.kr,38.14725011,127.3050586,2022-09-08,4300000,강원도 철원군
김화도서관,강원도,철원군,공공도서관,월+공휴일,09:00,23:00,09:00,23:00,00:00,00:00,250,74953,34,760,7,15,강원도 철원군 서면 와수로 184번길 6-31,강원도 철원군,033-450-5627,1919.94,1579.36,http://cwglib.cwg.go.kr,38.2385182,127.4400815,2022-09-08,4300000,강원도 철원군
관전도서관,강원도,철원군,공공도서관,월+공휴일,09:00,22:00,09:00,20:00,00:00,00:00,100,32870,8,0,7,15,강원도 철원군 철원읍 금학로 330번길 12,강원도 철원군,033-450-5327,916.92,916.92,http://cwglib.cwg.go.kr,38.216681,127.2141288,2022-09-08,4300000,강원도 철원군
양지마을작은도서관,강원도,철원군,공공도서관,일+월+공휴일,09:00,18:00,09:00,18:00,00:00,00:00,10,5611,14,0,7,15,강원도 철원군 근남면 하오재로 2054,강원도 철원군,033-458-7778,112.0,80.2,http://cwglib.cwg.go.kr,38.2374569,127.4708549,2022-09-08,4300000,강원도 철원군
손기정문화도서관,서울특별시,중구,공공도서관,월+법정공휴일,09:00,22:00,09:00,22:00,09:00,22:00,138,20442,37,0,10,14,서울특별시 중구 손기정로101,서울특별시중구문화재단,02-2230-2950,486.0,927.0,https://www.junggulib.or.kr,,,2023-06-29,3010000,서울특별시 중구
장충동 작은도서관,서울특별시,중구,작은도서관,월+법정공휴일,09:00,22:00,09:00,18:00,09:00,18:00,5,5344,15,0,10,14,서울특별시 중구 동호로25길 33,서울특별시중구문화재단,02-2230-2970,89.0,110.0,https://www.junggulib.or.kr,,,2023-06-29,3010000,서울특별시 중구
중구청 작은도서관,서울특별시,중구,작은도서관,주말+법정공휴일,09:00,18:00,00:00,00:00,00:00,00:00,14,8321,5,0,10,14,서울특별시 중구 창경궁로 17,서울특별시 중구 문화관광과,02-3396-4003,4890.0,106.0,https://www.junggulib.or.kr,37.56412015,126.9980097,2023-06-29,3010000,서울특별시 중구
회현동 작은도서관,서울특별시,중구,작은도서관,주말+법정공휴일,09:00,18:00,00:00,00:00,00:00,00:00,18,3816,0,0,10,14,서울특별시 중구 퇴계로8길 46,서울특별시 중구 문화관광과,02-3396-6558,550.0,86.5,https://www.junggulib.or.kr,37.557286,126.979356,2023-06-29,3010000,서울특별시 중구
광희동 작은도서관,서울특별시,중구,작은도서관,주말+법정공휴일,09:00,18:00,00:00,00:00,00:00,00:00,32,3630,0,0,10,14,서울특별시 중구 퇴계로 303-9,서울특별시 중구 문화관광과,02-2261-3002,131.2,85.96,https://www.junggulib.or.kr,37.56446028,127.005037,2023-06-29,3010000,서울특별시 중구
필동 작은도서관,서울특별시,중구,작은도서관,주말+법정공휴일,09:00,18:00,00:00,00:00,00:00,00:00,10,15062,0,0,10,14,서울특별시 중구 필동로 11,서울특별시 중구 문화관광과,02-2266-4005,212.4,102.08,https://www.junggulib.or.kr,37.560545,126.996237,2023-06-29,3010000,서울특별시 중구
신당동 작은도서관,서울특별시,중구,작은도서관,주말+법정공휴일,09:00,18:00,00:00,00:00,00:00,00:00,20,14275,0,3,10,14,서울특별시 중구 다산로29길 10,서울특별시 중구 문화관광과,02-2254-1212,325.0,168.32,https://www.junggulib.or.kr,37.561092,127.013533,2023-06-29,3010000,서울특별시 중구
다산동 작은도서관,서울특별시,중구,작은도서관,주말+법정공휴일,09:00,18:00,00:00,00:00,00:00,00:00,24,10421,0,2,10,14,서울특별시 중구 동호로12길 89,서울특별시 중구 문화관광과,02-2237-5893,127.0,193.32,https://www.junggulib.or.kr,37.55923048,127.012036,2023-06-29,3010000,서울특별시 중구
약수동 작은도서관,서울특별시,중구,작은도서관,주말+법정공휴일,09:00,18:00,00:00,00:00,00:00,00:00,9,20854,0,0,10,14,서울특별시 중구 동호로5길 19,서울특별시 중구 문화관광과,02-2232-8324,1553.0,822.37,https://www.junggulib.or.kr,37.551855,127.012567,2023-06-29,3010000,서울특별시 중구
청구동 작은도서관,서울특별시,중구,작은도서관,주말+법정공휴일,09:00,18:00,00:00,00:00,00:00,00:00,40,14977,0,0,10,14,서울특별시 중구 다산로24가길 23,서울특별시 중구 문화관광과,02-2234-8771,1974.0,1476.0,https://www.junggulib.or.kr,37.556314,127.015977,2023-06-29,3010000,서울특별시 중구
신당5동 작은도서관,서울특별시,중구,작은도서관,주말+법정공휴일,09:00,18:00,00:00,00:00,00:00,00:00,12,11400,0,0,10,14,서울특별시 중구 퇴계로90길 42,서울특별시 중구 문화관광과,02-2253-4901,165.5,71.14,https://www.junggulib.or.kr,37.563437,127.021636,2023-06-29,3010000,서울특별시 중구
동화동 작은도서관,서울특별시,중구,작은도서관,주말+법정공휴일,09:00,18:00,00:00,00:00,00:00,00:00,20,14761,0,0,10,14,서울특별시 중구 다산로36길 100,서울특별시 중구 문화관광과,02-2233-2626,18707.7,291.85,https://www.junggulib.or.kr,37.559982,127.019422,2023-06-29,3010000,서울특별시 중구
황학동 작은도서관,서울특별시,중구,작은도서관,주말+법정공휴일,09:00,18:00,00:00,00:00,00:00,00:00,46,15700,0,0,10,14,서울특별시 중구 난계로11길 52,서울특별시 중구 문화관광과,02-2233-3253,982.0,375.29,https://www.junggulib.or.kr,37.567423,127.021382,2023-06-29,3010000,서울특별시 중구
거제도서관,경상남도,거제시,공공도서관,매주 월+국가지정공휴일,09:00,18:00,09:00,18:00,09:00,18:00,669,121236,89,5300,20,14,경상남도 거제시 계룡로7길 2,경상남도교육청,055-637-6311,3665.0,3004.0,https://gjlib.gne.go.kr,34.878998,128.6228982,2023-06-30,9010000,경상남도교육청
거창도서관,경상남도,거창군,공공도서관,매주 월+국가지정공휴일,09:00,18:00,09:00,18:00,09:00,18:00,161,71817,28,6051,20,14,경상남도 거창군 거창읍 하동1길 9,경상남도교육청,055-945-1665,1475.0,1039.0,https://gclib.gne.go.kr,35.68739609,127.9117161,2023-06-30,9010000,경상남도교육청
고성도서관,경상남도,고성군,공공도서관,매주 월+국가지정공휴일,09:00,18:00,09:00,18:00,09:00,18:00,491,97324,59,10325,20,14,경상남도 고성군 고성읍 동외로195번길 6,경상남도교육청,055-673-8461,1993.0,2751.0,https://gslib.gne.go.kr,34.97925203,128.3263712,2023-06-30,9010000,경상남도교육청
김해도서관,경상남도,김해시,공공도서관,세 번째 월+국가지정공휴일,09:00,18:00,09:00,18:00,09:00,18:00,1083,380686,142,18356,20,14,경상남도 김해시 왕릉길 72,경상남도교육청,055-320-5510,7560.0,6679.0,https://ghlib.gne.go.kr,35.23296746,128.8740175,2023-06-30,9010000,경상남도교육청
김해지혜의바다도서관,경상남도,김해시,공공도서관,둘째 주 월+국가지정공휴일,09:00,18:00,09:00,18:00,09:00,18:00,523,139750,67,0,20,14,경상남도 김해시 주촌면 서부로 1541번길 8,경상남도교육청,055-330-9807,13399.0,3449.0,https://ghjhlib.gne.go.kr,35.23612914,128.8218688,2023-06-30,9010000,경상남도교육청
남지도서관,경상남도,창녕군,공공도서관,매주 월+국가지정공휴일,09:00,18:00,09:00,18:00,09:00,18:00,236,86794,138,9274,20,14,경상남도 창녕군 남지읍 낙동로 437,경상남도교육청,055-526-1492,1650.0,1246.0,https://njlib.gne.go.kr,35.3886009,128.4724772,2023-06-30,9010000,경상남도교육청
신광 마을도서관,전라남도,함평군,작은도서관,매주목요일+매주일요일+국가지정공휴일,09:00,17:00,09:00,17:00,00:00,00:00,12,590,0,0,0,0,전라남도 함평군 신광면 신광중앙길 84,전라남도 함평군청,000-000-0000,1889.0,46.0,,35.15451768,126.4970402,2023-06-30,4960000,전라남도 함평군
대동 사랑방문고,전라남도,함평군,작은도서관,매주토요일+국가지정공휴일,09:00,18:00,00:00,00:00,00:00,00:00,30,6678,0,0,3,14,전라남도 함평군 대동면 대동길 5-10,전라남도 함평군청,000-000-0000,2000.0,81.34,,35.06898342,126.5314058,2023-06-30,4960000,전라남도 함평군
학교면 작은도서관,전라남도,함평군,작은도서관,매주금요일+국가지정공휴일,09:00,17:00,00:00,00:00,00:00,00:00,13,1841,0,0,3,14,전라남도 함평군 학교면 학다리길 406,전라남도 함평군청,000-000-0000,992.0,189.6,,35.01993244,126.535517,2023-06-30,4960000,전라남도 함평군
해보 작은도서관,전라남도,함평군,작은도서관,매주월요일,10:00,18:00,10:00,18:00,10:00,18:00,18,8306,0,0,3,14,전라남도 함평군 해보면 밀재로 1261-7 (구)해보면사무소 2층,전라남도 함평군청,061-320-3699,2352.0,150.66,,35.18220144,126.6010873,2023-06-30,4960000,전라남도 함평군
월야 작은도서관,전라남도,함평군,작은도서관,매주월요일,10:00,18:00,10:00,18:00,10:00,18:00,18,4481,0,0,3,14,전라남도 함평군 월야면 밀재로 1543,전라남도 함평군청,061-320-3807,984.0,111.5,,35.17925174,126.630812,2023-06-30,4960000,전라남도 함평군
나산 작은도서관,전라남도,함평군,작은도서관,매주토요일+매주일요일+국가지정공휴일,09:00,18:00,00:00,18:00,00:00,00:00,18,2273,0,0,0,0,전라남도 함평군 나산면 나산길 51,전라남도 함평군청,061-320-3807,776.0,110.82,,35.11217308,126.610541,2023-06-30,4960000,전라남도 함평군
엄다면 작은도서관,전라남도,함평군,작은도서관,매주일요일+국가지정공휴일,10:30,18:30,10:30,18:30,00:00,00:00,20,1388,0,0,0,0,전라남도 함평군 엄다면 엄다길 76,전라남도 함평군청,061-323-7332,65.34,37.8,,35.00956099,126.518579,2023-06-30,4960000,전라남도 함평군
영덕공공도서관,경상북도,영덕군,공공도서관,월+국가지정공휴일,09:00,22:00,09:00,17:00,09:00,17:00,350,70875,68,6224,6,14,경상북도 영덕군 영덕읍 군청길 102,경상북도교육지원청,054-734-3106,1808.0,1598.28,http://www.gbelib.kr/yd,36.41467336,129.3682567,2023-06-30,5180000,경상북도 영덕군
예주작은도서관,경상북도,영덕군,작은도서관,월+국가지정공휴일,10:00,21:00,10:00,21:00,10:00,21:00,28,13500,0,0,3,7,경상북도 영덕군 영해면 318만세길 36,경상북도 영덕군청,054-730-6512,140.0,140.0,,36.52973493,129.4050846,2023-06-30,5180000,경상북도 영덕군
금호작은도서관,경상북도,영덕군,작은도서관,연중무휴,10:00,18:00,10:00,18:00,10:00,18:00,10,5000,0,0,3,7,경상북도 영덕군 강구면 번영길 36,금호교회,054-732-1620,,112.0,,36.37931487,129.387822,2023-06-30,5180000,경상북도 영덕군
예주고을작은도서관,경상북도,영덕군,작은도서관,일+국가지정공휴일,09:00,18:00,09:00,14:00,09:00,18:00,20,4285,0,0,2,14,경상북도 영덕군 영해면 예주8길 14-7,경상북도 영덕군청,054-730-6512,129.0,129.0,,36.53906186,129.413478,2023-06-30,5180000,경상북도 영덕군
강구블루센터어린이작은도서관,경상북도,영덕군,작은도서관,일+국가지정공휴일,10:00,19:00,10:00,19:00,10:00,19:00,10,4753,0,0,3,14,경상북도 영덕군 강구면 동해대로 4431,경상북도 영덕군청,054-730-6512,82.15,82.15,,36.3533753131,129.378568,2023-06-30,5180000,경상북도 영덕군
광주송정다가치문화도서관,광주광역시,광산구,공공도서관,둘째 주 월+넷째 주 월,07:00,22:00,07:00,22:00,09:00,18:00,128,165713,213,1503,5,14,광주광역시 광산구 송정공원로 8-13,광주광역시교육청,062-940-8900,3360.0,3309.03,http://lib.gen.go.kr/songjung/,35.1449261845,126.7997822483,2023-06-30,7380000,광주광역시교육청
노아의작은도서관,강원도,양양군,작은도서관,토+일+공휴일,10:00,16:00,00:00,00:00,00:00,00:00,12,1291,0,0,0,0,강원도 양양군 양양읍 동해대로 3029-6,노아의작은도서관,033-671-2443,,62.0,,38.11315907,128.6304423,2023-06-29,4350000,강원도 양양군
복골작은도서관,강원도,양양군,작은도서관,토+일+공휴일,10:00,16:00,00:00,00:00,00:00,00:00,20,2500,2,0,0,0,강원도 양양군 강현면 복골길 243,복골작은도서관,033-671-5626,,132.0,,38.14423301,128.5630591,2023-06-29,4350000,강원도 양양군
거말작은도서관,강원도,양양군,작은도서관,토+일+공휴일,10:00,16:00,00:00,00:00,00:00,00:00,40,2300,3,0,0,0,강원도 양양군 양양읍 단지길 40,거말작은도서관,033-671-4710,,94.0,,38.08241451,128.5889239,2023-06-29,4350000,강원도 양양군
양양감리교회작은도서관,강원도,양양군,작은도서관,토+일+공휴일,10:00,16:00,00:00,00:00,00:00,00:00,20,1850,3,0,0,0,강원도 양양군 양양읍 구성사잇길 9,양양감리교회작은도서관,033-671-8961,,35.0,,38.07715756,128.6198095,2023-06-29,4350000,강원도 양양군
가온도서관,서울특별시,중구,공공도서관,월+법정공휴일,09:00,22:00,09:00,22:00,09:00,22:00,70,83438,56,1410,10,14,서울특별시 중구 동호로14길 18,서울특별시중구문화재단,02-2230-2921,486.0,965.95,https://www.junggulib.or.kr,37.556385,127.010838,2023-06-29,3010000,서울특별시 중구
어울림도서관,서울특별시,중구,공공도서관,월+법정공휴일,09:00,22:00,09:00,22:00,09:00,22:00,130,93743,54,1582,10,14,서울특별시 중구 다산로38길 66-35,서울특별시중구문화재단,02-2230-2901,618.0,1557.4,https://www.junggulib.or.kr,37.561723,127.0189303,2023-06-29,3010000,서울특별시 중구
남산타운어린이도서관,서울특별시,중구,공공도서관,월(첫째 주+셋째 주)+일(둘째 주+넷째 주)+법정공휴일,09:00,22:00,09:00,18:00,09:00,18:00,20,37304,25,634,10,14,서울특별시 중구 다산로 32,서울특별시중구문화재단,02-2230-2941,577.0,274.0,https://www.junggulib.or.kr,37.547167,127.005677,2023-06-29,3010000,서울특별시 중구
손기정어린이도서관,서울특별시,중구,공공도서관,월+법정공휴일,09:00,22:00,09:00,18:00,09:00,18:00,70,21875,0,0,10,14,서울특별시 중구 손기정로 101,서울특별시중구문화재단,02-2230-2945,445.0,448.0,https://www.junggulib.or.kr,37.5554795,126.964816,2023-06-29,3010000,서울특별시 중구
신당누리도서관,서울특별시,중구,공공도서관,일+법정공휴일,09:00,22:00,09:00,18:00,00:00,00:00,24,9728,23,0,10,14,서울특별시 중구 다산로33길 2,서울특별시중구문화재단,02-2230-2960,1226.0,653.0,https://www.junggulib.or.kr,37.56230079,127.0145942,2023-06-29,3010000,서울특별시 중구
다산성곽도서관,서울특별시,중구,공공도서관,월+법정공휴일,09:00,22:00,09:00,22:00,09:00,22:00,60,11455,44,0,10,14,서울특별시 중구 동호로17길 173,서울특별시중구문화재단,02-2230-2965,788.0,442.0,https://www.junggulib.or.kr,,,2023-06-29,3010000,서울특별시 중구
샘터작은도서관,서울특별시,광진구,작은도서관,없음,13:00,19:00,13:00,19:00,00:00,00:00,25,10306,0,2,3,7,서울특별시 광진구 용마산로24길 10(중곡동),,02-446-0191,,,,37.5651522,127.087354,2023-07-05,3040000,서울특별시 광진구
국제문학작은도서관,서울특별시,광진구,작은도서관,일,18:00,19:00,13:00,17:00,00:00,00:00,8,2500,3,0,3,7,서울특별시 광진구 광나루로15길 41(군자동),,02-465-7271,,,,37.55012813,127.0696581,2023-07-05,3040000,서울특별시 광진구
사하라작은도서관,서울특별시,광진구,작은도서관,토+일,14:00,18:00,00:00,00:00,00:00,00:00,20,1200,4,0,3,7,"서울특별시 광진구 광장로 78, 2층(광장동, 광성빌딩)",,02-453-7068,,,,37.54761106,127.1056385,2023-07-05,3040000,서울특별시 광진구
부산진구어린이청소년도서관,부산광역시,부산진구,공공도서관,월+국가지정공휴일,09:00,22:00,09:00,22:00,00:00,00:00,161,64670,35,352,5,14,부산광역시 부산진구 백양순환로110번길 25,부산광역시 부산진구청,051-605-5801,,795.89,https://www.busanjin.go.kr/cylib/index.busanjin?cpath=close,35.1690132,129.0396629,2023-07-04,3290000,부산광역시 부산진구
연지동작은도서관,부산광역시,부산진구,작은도서관,토+일+국가지정공휴일,10:00,18:00,00:00,00:00,00:00,00:00,10,10796,0,0,5,14,부산광역시 부산진구 국악로 30,부산광역시 부산진구청,051-605-6579,,115.93,,35.1727752,129.0528545,2023-07-04,3290000,부산광역시 부산진구
양정1동작은도서관,부산광역시,부산진구,작은도서관,토+일+국가지정공휴일,09:00,18:00,00:00,00:00,00:00,00:00,32,11761,0,0,5,14,부산광역시 부산진구 동평로406번길 38,부산광역시 부산진구청,051-605-5861,,122.51,,35.1721368,129.0687365,2023-07-04,3290000,부산광역시 부산진구
양정2동작은도서관,부산광역시,부산진구,작은도서관,토+일+국가지정공휴일,09:00,18:00,00:00,00:00,00:00,00:00,32,7700,0,0,5,14,부산광역시 부산진구 양정로15번길 26,부산광역시 부산진구청,051-605-6621,,113.5,,35.1728816,129.0757379,2023-07-04,3290000,부산광역시 부산진구
부암1동책마루작은도서관,부산광역시,부산진구,작은도서관,토+일+국가지정공휴일,09:00,18:00,00:00,00:00,00:00,00:00,40,7451,0,0,5,14,부산광역시 부산진구 신천대로241번길 41,부산광역시 부산진구청,051-605-6702,,92.86,,35.1632732,129.0485629,2023-07-04,3290000,부산광역시 부산진구
당감1동작은도서관,부산광역시,부산진구,작은도서관,토+일+국가지정공휴일,09:00,18:00,00:00,00:00,00:00,00:00,50,9285,0,0,5,14,부산광역시 부산진구 동평로44번길 49-6,부산광역시 부산진구청,051-605-6787,,185.18,,35.1644448,129.0356839,2023-07-04,3290000,부산광역시 부산진구
당감4동사랑방마실작은도서관,부산광역시,부산진구,작은도서관,토+일+국가지정공휴일,09:00,18:00,00:00,00:00,00:00,00:00,25,6957,0,0,5,14,부산광역시 부산진구 당감서로100번길 100,부산광역시 부산진구청,051-914-6801,,92.2,,35.1717751,129.0323825,2023-07-04,3290000,부산광역시 부산진구
개금2동행복마을작은도서관,부산광역시,부산진구,작은도서관,토+일+국가지정공휴일,09:00,18:00,00:00,00:00,00:00,00:00,20,4081,0,0,5,14,부산광역시 부산진구 진사로 83번길 21,부산광역시 부산진구청,051-924-0255,,84.42,,35.1442073,129.017198,2023-07-04,3290000,부산광역시 부산진구
범천2동작은도서관,부산광역시,부산진구,작은도서관,토+일+국가지정공휴일,09:00,18:00,00:00,00:00,00:00,00:00,42,12271,0,0,5,14,부산광역시 부산진구 신암로 48,부산광역시 부산진구청,051-605-6976,,145.5,,35.1465101,129.0562321,2023-07-04,3290000,부산광역시 부산진구
가야감고개공원작은도서관,부산광역시,부산진구,작은도서관,토+일+국가지정공휴일,09:00,18:00,09:00,18:00,00:00,00:00,20,4249,0,0,5,14,부산광역시 부산진구 가야대로548번길 109,부산광역시 부산진구청,070-4139-2580,,85.14,,35.148458,129.0334814,2023-07-04,3290000,부산광역시 부산진구
전포어울더울작은도서관,부산광역시,부산진구,작은도서관,토+일+국가지정공휴일,09:00,18:00,09:00,18:00,00:00,00:00,20,2648,0,0,5,14,부산광역시 부산진구 서전로58번길145,부산광역시 부산진구청,070-8230-8221,,206.27,,35.151362,129.066478,2023-07-04,3290000,부산광역시 부산진구
함평군립도서관,전라남도,함평군,공공도서관,매주금요일+국가지정공휴일,08:00,22:00,08:00,22:00,00:00,00:00,92,30404,0,439,5,14,전라남도 함평군 함평읍 곤재로 36-33,전라남도 함평군청,061-320-2263,4481.0,1198.0,www.butterflyhp.or.kr,35.0575586,126.5178492,2023-06-30,4960000,전라남도 함평군
손불 작은도서관,전라남도,함평군,작은도서관,매주토요일+매주일요일+국가지정공휴일,10:00,18:00,00:00,00:00,00:00,00:00,14,1505,0,0,3,14,전라남도 함평군 손불면 손불중앙길 76-11,전라남도 함평군청,000-000-0000,710.0,198.34,,35.1429251,126.431564,2023-06-30,4960000,전라남도 함평군
진천역화성파크리젠시도서관,대구광역시,달서구,작은도서관,화+목+토+일+법정공휴일,14:00,18:00,00:00,00:00,00:00,00:00,18,6932,6,80,3,7,"대구광역시 달서구 월배로11길 9-15 (유천동, 진천역화성파크리젠시)",,070-4243-8737,,58.6,,35.81343468,128.5189433,2023-03-31,3470000,대구광역시 달서구
성당포스코the도서관,대구광역시,달서구,작은도서관,토+일+법정공휴일,15:00,18:00,00:00,00:00,00:00,00:00,21,12080,0,87,3,15,"대구광역시 달서구 장기로 115 (성당동, 성당포스코더샵)",,070-8911-3402,,121.0,,35.84314371,128.5473095,2023-03-31,3470000,대구광역시 달서구
상인역e.편한세상마을문고,대구광역시,달서구,작은도서관,화+목+금+토+일+법정공휴일,15:00,17:00,00:00,00:00,00:00,00:00,25,4884,0,0,3,7,"대구광역시 달서구 월서로3길 15 (상인동, 상인역e-편한세상 2단지)",,053-634-5577,,46.0,,35.81970154,128.5350079,2023-03-31,3470000,대구광역시 달서구
월성푸르지오책마루도서관,대구광역시,달서구,작은도서관,일+법정공휴일,13:00,18:00,10:00,13:00,00:00,00:00,60,18215,6,0,3,7,"대구광역시 달서구 조암로6길 20 (월성동, 월성푸르지오)",,053-635-0061,,191.0,,35.82912849,128.5260212,2023-03-31,3470000,대구광역시 달서구
월성월드메르디앙도서관,대구광역시,달서구,작은도서관,금+토+일+법정공휴일,15:00,21:00,00:00,00:00,00:00,00:00,50,11253,5,0,3,7,"대구광역시 달서구 조암로6길 19 (월성동, 월드메르디앙)",,053-638-6920,,121.65,,35.82652299,128.5231334,2023-03-31,3470000,대구광역시 달서구
월배힐스테이트반딧불도서관,대구광역시,달서구,작은도서관,일+법정공휴일,14:00,18:00,14:00,16:00,00:00,00:00,40,17105,3,0,3,7,"대구광역시 달서구 조암남로 132 (대천동, 월배힐스테이트)",,053-294-7228,,173.63,,35.81890166,128.5176264,2023-03-31,3470000,대구광역시 달서구
삼성명가타운작은도서관,대구광역시,달서구,작은도서관,토+일+법정공휴일,14:00,17:00,00:00,00:00,00:00,00:00,80,12008,0,50,2,14,"대구광역시 달서구 호산로 125 (파호동, 삼성명가타운)",,070-7865-8088,,135.0,,35.85025339,128.4736813,2023-03-31,3470000,대구광역시 달서구
월성도서관,대구광역시,달서구,작은도서관,월+법정공휴일,10:00,17:00,09:00,17:00,09:00,17:00,20,2263,0,0,3,7,대구광역시 달서구 조암남로6길 30 (월성동1225-1),,053-637-7023,,200.9,,35.82312044,128.5282689,2023-03-31,3470000,대구광역시 달서구
하늘향기충성가족도서관,대구광역시,달서구,작은도서관,월+법정공휴일,10:00,18:00,10:00,18:00,10:00,19:00,55,8085,24,0,3,14,대구광역시 달서구 월배로 12(진천동 789-3),,053-636-9536,,151.5,,35.81115449,128.5170686,2023-03-31,3470000,대구광역시 달서구
이레도서관,대구광역시,달서구,작은도서관,월+일+법정공휴일,10:00,17:00,10:00,17:00,00:00,00:00,12,3350,0,0,3,15,대구광역시 달서구 진천로 26(진천동 482-10),,070-8229-0591,,42.9,,35.81129683,128.5257891,2023-03-31,3470000,대구광역시 달서구
정남진도서관,전라남도,장흥군,공공도서관,금+법정공휴일,08:00,23:59,08:00,23:59,08:00,23:59,377,105848,0,6575,7,14,전라남도 장흥군 장흥읍 흥성로 23,전라남도 장흥군청,061-863-5454,2409.0,1116.09,http://www.jhjl.kr,34.67443274,126.906606,2023-06-09,4910000,전라남도 장흥군
안전 작은도서관,전라북도,임실군,작은도서관,월+법정공휴일,09:00,18:00,10:00,17:00,00:00,00:00,20,5294,0,0,10,14,전라북도 임실군 임실읍 호국로 1630,전라북도청,063-290-5678,,180.0,무,35.60204776,127.2837555,2023-05-30,4760000,전라북도 임실군
충경 작은도서관,전라북도,임실군,작은도서관,토+일+법정공휴일,09:00,18:00,00:00,00:00,00:00,00:00,10,8668,0,0,10,14,전라북도 임실군 임실읍 감천로 315-5,35사단,063-644-0113,,510.0,무,35.59360315,127.3049606,2023-05-30,4760000,전라북도 임실군
무지개빛 작은도서관,전라북도,임실군,작은도서관,토+일+법정공휴일,09:00,18:00,00:00,00:00,00:00,00:00,20,9332,0,0,10,14,전라북도 임실군 관촌면 사선 2길 96-24,임실군청소년수련원,063-643-3012,,168.0,무,35.67281314,127.2775199,2023-05-30,4760000,전라북도 임실군
필봉 작은도서관,전라북도,임실군,작은도서관,토+일+법정공휴일,09:00,18:00,00:00,00:00,00:00,00:00,20,5687,0,0,10,14,전라북도 임실군 강진면 강운로 272,필봉문화촌,070-4070-6728,,143.0,무,35.53639442,127.154416,2023-05-30,4760000,전라북도 임실군
아낌없이주는나무 작은도서관,전라북도,임실군,작은도서관,일+수+법정공휴일,09:00,18:00,09:00,18:00,00:00,00:00,26,7222,0,0,10,14,전라북도 임실군 임실읍 치즈마을2길 16-6,치즈마을 운영위원회,063-644-3833,,165.0,무,35.64098351,127.3015014,2023-05-30,4760000,전라북도 임실군
광진정보도서관,서울특별시,광진구,공공도서관,둘째 주 화+넷째 주 화+공휴일,09:00,22:00,09:00,18:00,00:00,00:00,1295,301007,369,20497,7,14,서울특별시 광진구 아차산로78길 90(광장동),광진구시설관리공단,02-3437-5092,,7283.0,http://www.gwangjinlib.seoul.kr/,37.55107355,127.1106137,2023-07-05,3040000,서울특별시 광진구
자양한강도서관,서울특별시,광진구,공공도서관,둘째 주 월+넷째 주 월+공휴일,09:00,20:00,09:00,18:00,00:00,00:00,370,43604,47,0,7,14,서울특별시 광진구 뚝섬로52길 66(자양동),광진구시설관리공단,02-456-0048,,1650.0,http://www.gwangjinlib.seoul.kr/,37.52921552,127.077668,2023-07-05,3040000,서울특별시 광진구
중곡문화체육센터도서관,서울특별시,광진구,공공도서관,첫째 주 월+셋째 주 월+공휴일,09:00,22:00,09:00,18:00,00:00,00:00,259,80389,98,0,7,14,서울특별시 광진구 능동로 433(중곡동),광진구시설관리공단,02-3408-4900,,2032.0,http://www.gwangjinlib.seoul.kr/,37.56777776,127.0848034,2023-07-05,3040000,서울특별시 광진구
자양제4동도서관,서울특별시,광진구,공공도서관,첫째 주 화+셋째 주 화+공휴일,09:00,20:00,09:00,18:00,00:00,00:00,98,26717,4,0,5,14,서울특별시 광진구 뚝섬로26길 58(자양동),광진구시설관리공단,02-465-0737,,333.0,http://www.gwangjinlib.seoul.kr/,37.5340959,127.0662599,2023-07-05,3040000,서울특별시 광진구
삼죽작은도서관,경기도,안성시,작은도서관,1)매주일요일 2)국가지정공휴일,10:00,19:00,10:00,19:00,00:00,23:59,74,21557,13,313,10,14,경기도 안성시 삼죽면 삼죽로 112,경기도 안성시,031-671-7940,,345.0,http://www.anseong.go.kr/library,,,2023-03-21,4080000,경기도 안성시
대림동산작은도서관,경기도,안성시,작은도서관,1)매주일요일 2)국가지정공휴일,10:00,19:00,10:00,19:00,00:00,23:59,10,5389,10,1,10,14,경기도 안성시 공도읍 대림동산길 38,경기도 안성시,070-4942-0049,,29.0,http://www.anseong.go.kr/library,,,2023-03-21,4080000,경기도 안성시
양성작은도서관,경기도,안성시,작은도서관,1)매주일요일 2)국가지정공휴일,10:00,19:00,10:00,19:00,00:00,23:59,18,3289,0,0,10,14,경기도 안성시 양성면 읍내길 21,경기도 안성시,031-678-0721,,265.0,http://www.anseong.go.kr/library,,,2023-03-21,4080000,경기도 안성시
미양작은도서관,경기도,안성시,작은도서관,1)매주일요일 2)국가지정공휴일,10:00,19:00,10:00,19:00,00:00,23:59,40,5318,0,0,10,14,경기도 안성시 미양면 양지길 29,경기도 안성시,031-678-0722,,345.0,http://www.anseong.go.kr/library,,,2023-03-21,4080000,경기도 안성시
전하작은도서관,울산광역시,동구,작은도서관,월,10:00,18:00,10:00,18:00,10:00,18:00,34,24681,4,766,5,14,울산광역시 동구 진성8길 91(동구평생학습관 1층),울산광역시동구청,052-209-3936,,336.0,https://library.donggu.ulsan.kr,35.50935529,129.4293241,2023-04-25,3710000,울산광역시 동구
남목작은도서관,울산광역시,동구,작은도서관,월,10:00,18:00,10:00,18:00,10:00,18:00,27,21877,4,1009,5,14,울산광역시 동구 방어진순환도로 1170(남목1동주민센터 2층),울산광역시동구청,052-209-3947,,1788.0,https://library.donggu.ulsan.kr,35.53928726,129.4207551,2023-04-25,3710000,울산광역시 동구
전하2동작은도서관,울산광역시,동구,작은도서관,토+일+공휴일,10:00,16:00,00:00,00:00,00:00,00:00,21,2332,0,0,3,7,울산광역시 동구 진성4길 45,전하2동 주민자치위원회,052-209-4313,,438.0,,,,2023-04-25,3710000,울산광역시 동구
바다가보이는작은도서관,울산광역시,동구,작은도서관,월,10:00,21:00,10:00,20:00,10:00,18:00,30,3477,0,30,3,14,울산광역시 동구 봉수로 155,동구청소년문화의집,052-251-7925,,828.0,,,,2023-04-25,3710000,울산광역시 동구
해누리문고작은도서관,울산광역시,동구,작은도서관,토+일+공휴일,10:00,19:00,00:00,00:00,00:00,00:00,30,9064,0,0,5,14,울산광역시 동구 방어진순환도로 501,해누리지역아동센터,052-252-8704,,132.0,,,,2023-04-25,3710000,울산광역시 동구
더불어숲작은도서관,울산광역시,동구,작은도서관,일+공휴일,10:00,18:00,10:00,14:00,00:00,00:00,32,6601,6,0,3,14,울산광역시 동구 대학길40-1,더불어숲,052-236-6053,,99.0,,,,2023-04-25,3710000,울산광역시 동구
꿈터노리작은도서관,울산광역시,동구,작은도서관,토+일+공휴일,10:00,15:00,00:00,00:00,00:00,00:00,20,1000,0,0,0,0,울산광역시 동구 문재3길 31,꿈터노리,052-980-9989,,1165.0,,,,2023-04-25,3710000,울산광역시 동구
드림작은도서관,울산광역시,동구,작은도서관,토+일+공휴일,10:00,16:00,00:00,00:00,00:00,00:00,15,1500,1,0,2,14,울산광역시 동구 월봉10길 70,무지개인성교육원,052-232-7787,,60.0,,,,2023-04-25,3710000,울산광역시 동구
명덕이음작은도서관,울산광역시,동구,작은도서관,일+공휴일,09:00,18:00,10:00,13:00,00:00,00:00,20,3565,0,0,5,15,울산광역시 동구 명덕로 70,개인,052-235-4454,,7933.0,https://cafe.naver.com/mdbooki,,,2023-04-25,3710000,울산광역시 동구
우리동네작은도서관,울산광역시,동구,작은도서관,토+일+공휴일,10:00,17:00,00:00,00:00,00:00,00:00,26,1500,0,0,1,7,울산광역시 동구 바드래4길 74-1,개인,052-232-3230,,6657.0,,,,2023-04-25,3710000,울산광역시 동구
꿈샘도서관,울산광역시,동구,작은도서관,일,13:00,17:00,13:00,17:00,13:00,17:00,16,5000,0,0,5,14,울산광역시 동구 남목18길 27,울산갈릴리교회,052-251-7384,,141.0,,,,2023-04-25,3710000,울산광역시 동구
상록수독서문화원,울산광역시,동구,작은도서관,토,13:00,18:00,00:00,00:00,10:00,15:00,24,5474,0,0,3,7,울산광역시 동구 문재2나길 4,선교교회,052-236-8591,,396.0,,,,2023-04-25,3710000,울산광역시 동구
로뎀나무작은도서관,울산광역시,동구,작은도서관,일,09:30,18:00,09:30,18:00,09:00,16:00,30,2700,0,0,5,7,울산광역시 동구 꽃바위로 380,세계비전교회,052-252-1990,,67.0,,,,2023-04-25,3710000,울산광역시 동구
온유작은도서관,울산광역시,동구,작은도서관,월,13:00,17:00,13:00,17:00,09:00,17:00,30,3954,0,0,3,14,울산광역시 동구 녹수3길 47,울산온유교회,052-251-0191,,572.0,,,,2023-04-25,3710000,울산광역시 동구
중곡4동새마을작은도서관,서울특별시,광진구,작은도서관,토+일+공휴일,09:00,17:00,00:00,00:00,00:00,00:00,25,5657,0,0,3,7,서울특별시 광진구 긴고랑로 131(중곡동),,02-450-1513,,,,37.55909955,127.0894339,2023-07-05,3040000,서울특별시 광진구
능동새마을작은도서관,서울특별시,광진구,작은도서관,토+일+공휴일,13:00,17:00,00:00,00:00,00:00,00:00,10,8193,0,0,3,7,서울특별시 광진구 천호대로112길 55(능동),,02-453-6525,,,,37.55376123,127.0805504,2023-07-05,3040000,서울특별시 광진구
구의1동새마을작은도서관,서울특별시,광진구,작은도서관,토+일+공휴일,09:30,17:30,00:00,00:00,00:00,00:00,14,8259,0,0,3,7,서울특별시 광진구 광나루로36길 56(구의동),,02-454-2830,,,,37.54249155,127.0856664,2023-07-05,3040000,서울특별시 광진구
구의2동새마을작은도서관,서울특별시,광진구,작은도서관,토+일+공휴일,13:30,17:30,00:00,00:00,00:00,00:00,15,6840,0,0,3,7,서울특별시 광진구 광나루로37길 24-6,,02-458-1380,,,,37.54561189,127.0883586,2023-07-05,3040000,서울특별시 광진구
광장동새마을작은도서관,서울특별시,광진구,작은도서관,토+일+공휴일,12:00,16:00,00:00,00:00,00:00,00:00,14,5705,0,0,3,7,서울특별시 광진구 광장로 52(광장동),,02-458-8379,,,,37.54688177,127.1030122,2023-07-05,3040000,서울특별시 광진구
자양1동새마을작은도서관,서울특별시,광진구,작은도서관,토+일+공휴일,13:00,17:00,00:00,00:00,00:00,00:00,14,10922,0,0,3,7,서울특별시 광진구 자양로13길 37(자양동),,02-446-0135,,,,37.5344966,127.0823943,2023-07-05,3040000,서울특별시 광진구
자양2동새마을작은도서관,서울특별시,광진구,작은도서관,토+일+공휴일,09:00,17:00,00:00,00:00,00:00,00:00,14,11232,0,0,3,7,서울특별시 광진구 자양로3가길 26(자양동),,02-498-9963,,,,37.52879933,127.0843882,2023-07-05,3040000,서울특별시 광진구
자양3동새마을작은도서관,서울특별시,광진구,작은도서관,토+일+공휴일,09:00,17:00,00:00,00:00,00:00,00:00,20,9726,0,0,3,7,서울특별시 광진구 뚝섬로 568(자양동),,02-458-4525,,,,37.53383249,127.0729033,2023-07-05,3040000,서울특별시 광진구
자양4동새마을작은도서관,서울특별시,광진구,작은도서관,토+일+공휴일,13:00,17:00,00:00,00:00,00:00,00:00,8,4826,0,0,3,7,서울특별시 광진구 아차산로24길 17(자양동),,02-462-0395,,,,37.54026298,127.0651113,2023-07-05,3040000,서울특별시 광진구
화양동새마을작은도서관,서울특별시,광진구,작은도서관,토+일+공휴일,13:00,17:00,00:00,00:00,00:00,00:00,30,10776,0,0,3,7,서울특별시 광진구 능동로17길 39(화양동),,02-461-2638,,,,37.54653756,127.0713179,2023-07-05,3040000,서울특별시 광진구
군자동새마을작은도서관,서울특별시,광진구,작은도서관,토+일+공휴일,13:30,17:30,00:00,00:00,00:00,00:00,10,6564,0,0,3,7,서울특별시 광진구 군자로 151(군자동),,02-465-9082,,,,37.55515906,127.0758892,2023-07-05,3040000,서울특별시 광진구
새빛작은도서관,서울특별시,광진구,작은도서관,토+일,09:00,18:00,00:00,00:00,00:00,00:00,30,9250,0,0,5,7,"서울특별시 광진구 아차산로 330 (자양동, 새빛지역아동센터)",,02-3436-6852,,,,37.53727353,127.0794272,2023-07-05,3040000,서울특별시 광진구
예드림작은도서관,서울특별시,광진구,작은도서관,일,10:00,18:00,10:00,15:00,00:00,00:00,40,7821,2,0,5,7,"서울특별시 광진구 구의강변로 96, B101호(구의동, 예드림교회)",,02-6408-0014,,,,37.53914351,127.0943108,2023-07-05,3040000,서울특별시 광진구
평강마을도서관,서울특별시,광진구,작은도서관,일,09:00,18:00,09:00,17:00,00:00,00:00,50,8217,0,0,2,21,"서울특별시 광진구 자양번영로4길 13, 2층(자양동, 평강침례교회)",,02-453-6238,,,,37.53157438,127.0760916,2023-07-05,3040000,서울특별시 광진구
광장현대파크빌도서관,서울특별시,광진구,작은도서관,토+일,09:00,22:00,00:00,00:00,00:00,00:00,17,3300,0,0,0,7,서울특별시 광진구 아차산로 549 (광장동),,02-458-7480,,,,37.54335816,127.1017445,2023-07-05,3040000,서울특별시 광진구
중곡교회작은도서관,서울특별시,광진구,작은도서관,월+일+공휴일,11:00,17:00,00:00,00:00,00:00,00:00,12,2600,0,0,3,14,"서울특별시 광진구 긴고랑로36길 56, 지하1층(중곡동, 중곡교회)",,02-452-4956,,,,37.55696496,127.090785,2023-07-05,3040000,서울특별시 광진구
아름드리작은도서관,서울특별시,광진구,작은도서관,토+일,09:00,18:00,00:00,00:00,00:00,00:00,20,5621,20,0,3,7,"서울특별시 광진구 워커힐로 93, 본관 2층(구의동, 정립회관)",,02-446-1237,,,,37.55053695,127.0979157,2023-07-05,3040000,서울특별시 광진구
아차산아래작은도서관놀자,서울특별시,광진구,작은도서관,월+일,10:00,18:00,13:00,17:00,00:00,00:00,35,7061,3,7,3,7,"서울특별시 광진구 자양로50가길 45, 2층(구의동)",,02-2272-2011,,,,37.55385545,127.0944525,2023-07-05,3040000,서울특별시 광진구
하람도서관,서울특별시,광진구,작은도서관,토+일,10:00,17:00,00:00,00:00,00:00,00:00,12,2000,4,0,3,14,"서울특별시 광진구 용마산로 16길 18, 101호(중곡동)",,02-475-7791,,,,37.56212772,127.0883465,2023-07-05,3040000,서울특별시 광진구
운룡도서관,서울특별시,광진구,작은도서관,토+일,10:00,18:00,00:00,00:00,00:00,00:00,20,20000,8,0,3,14,서울특별시 광진구 자양로43길 85(중곡동),,02-454-3431,,,,37.55419818,127.0893602,2023-07-05,3040000,서울특별시 광진구
더바움문화예술작은도서관,서울특별시,광진구,작은도서관,일,11:00,17:00,09:00,13:00,00:00,00:00,12,4011,7,0,5,30,"서울특별시 광진구 자양로28길 98, 지하1층(구의동)",,02-443-6376,,,,37.54141454,127.0895623,2023-07-05,3040000,서울특별시 광진구
성신비전스쿨도서관,서울특별시,광진구,작은도서관,월,13:00,19:00,13:00,19:00,00:00,00:00,20,3500,0,0,3,7,서울특별시 광진구 동일로 160(화양동),,02-463-5959,,,,37.546461,127.0666556,2023-07-05,3040000,서울특별시 광진구
이룸도서관,서울특별시,광진구,작은도서관,없음,13:00,18:00,13:00,18:00,09:00,14:00,8,3000,6,0,3,14,서울특별시 광진구 용마산로 49(중곡동),,02-446-0691,,,,37.5579873,127.0875991,2023-07-05,3040000,서울특별시 광진구
사람아이앤지작은도서관,서울특별시,광진구,작은도서관,일,11:00,20:00,11:00,20:00,00:00,00:00,50,6233,2,1,3,7,"서울특별시 광진구 자양로 322, 3층(구의동)",,02-823-4514,,,,37.55392748,127.0940536,2023-07-05,3040000,서울특별시 광진구
청담에픽영어도서관,광주광역시,남구,작은도서관,연중무휴,09:00,21:00,09:00,21:00,09:00,21:00,18,1200,0,0,0,0,광주광역시 남구 봉선로 158,㈜오디세이원,062-449-0579,,178.99,,35.12272918,126.9123713,2022-05-13,3610000,광주광역시 남구
큰골작은도서관,광주광역시,남구,작은도서관,토+공휴일,09:00,18:00,00:00,00:00,00:00,00:00,16,2175,0,0,3,7,광주광역시 남구 효우로 262,효천LH천년나무1단지,062-674-6328,,56.0,,35.10332304,126.886899,2022-05-13,3610000,광주광역시 남구
풀꽃작은도서관,광주광역시,남구,작은도서관,공휴일,09:00,17:00,09:00,17:00,00:00,00:00,50,3750,0,0,3,14,광주광역시 남구 용대로 131-1,풀꽃지역아동센터,062-651-7952,,104.15,,35.12755179,126.9173024,2022-05-13,3610000,광주광역시 남구
풍경작은도서관,광주광역시,남구,작은도서관,토+공휴일,09:00,18:00,00:00,00:00,00:00,00:00,6,1083,0,0,0,0,광주광역시 남구 제석로80번길 5,제일풍경채엘리트파크,062-652-7734,,44.0,,35.12181523,126.9075683,2022-05-13,3610000,광주광역시 남구
풍경채1차작은도서관,광주광역시,남구,작은도서관,공휴일,11:00,19:00,10:00,14:00,00:00,00:00,70,5100,0,0,3,7,광주광역시 남구 효우로 332-10,제일풍경채에듀파크1단지,062-654-0526,,194.0,,35.10068544,126.8819706,2022-05-13,3610000,광주광역시 남구
풍림작은도서관,광주광역시,남구,작은도서관,토+공휴일,10:00,17:00,00:00,00:00,00:00,00:00,20,2102,0,0,3,7,광주광역시 남구 화산로31번안길 2,진월풍림아파트,062-671-1901,,112.2,,35.11287126,126.8995346,2022-05-13,3610000,광주광역시 남구
작은도서관 수인제,대구광역시,북구,작은도서관,토+일+법정공휴일,10:00,17:00,00:00,00:00,00:00,00:00,10,2500,2,0,0,0,대구광역시 북구 학남로17길 25(국우동),,,,40.0,,35.9448364567,128.5723887131,2022-11-23,3450000,대구광역시 북구
책마실도서관,대구광역시,북구,작은도서관,월+일+법정공휴일,09:00,17:00,09:00,16:00,00:00,00:00,30,7557,7,100,10,14,"대구광역시 북구 구리로 25-19, 2층(학정동)",,053-324-0615,,165.6,,35.94725664,128.5572529,2022-11-23,3450000,대구광역시 북구
천년나무작은도서관,대구광역시,북구,작은도서관,토+일+법정공휴일,10:00,19:00,00:00,00:00,00:00,00:00,15,1302,2,0,2,7,"대구광역시 북구 내곡로 69(사수동, 대구금호엘에이치천년나무5단지)",,053-327-2299,,64.25,,35.90314252,128.5118251,2022-11-23,3450000,대구광역시 북구
칠곡그린빌4단지 도서실,대구광역시,북구,작은도서관,월+토+일+법정공휴일,17:00,20:00,00:00,00:00,00:00,00:00,24,4877,3,0,0,0,"대구광역시 북구 구암서로 22(구암동, 그린빌4)",,053-267-5455,,54.11,,35.93644448,128.5655893,2022-11-23,3450000,대구광역시 북구
하늘샘작은도서관,대구광역시,북구,작은도서관,월+법정공휴일,10:00,16:00,10:00,16:00,10:00,16:00,50,2454,0,0,0,0,대구광역시 북구 매전로4길 10-14(매천동),,053-314-0600,,93.48,,35.90800586,128.5429328,2022-11-23,3450000,대구광역시 북구
하람어린이도서관,대구광역시,북구,작은도서관,월+법정공휴일,09:30,17:30,09:30,17:30,09:30,16:00,30,3850,0,0,0,0,대구광역시 북구 대현로21길 72-3(대현동),,053-954-1693,,48.0,,35.885783,128.605915,2022-11-23,3450000,대구광역시 북구
헤세드 작은도서관,대구광역시,북구,작은도서관,일+법정공휴일,10:30,20:00,10:30,20:00,00:00,00:00,20,4000,0,0,0,0,대구광역시 북구 관음중앙로 117(관음동),,,,39.28,,35.944305,128.5451804928,2022-11-23,3450000,대구광역시 북구
협성휴포레강북작은도서관,대구광역시,북구,작은도서관,토+일+법정공휴일,14:00,18:00,00:00,00:00,00:00,00:00,12,6410,0,0,3,7,"대구광역시 북구 태암남로 60(태전동,협성휴포레강북아파트)",,053-311-7620,,109.1,,35.92442007,128.5539097,2022-11-23,3450000,대구광역시 북구
화성그랜드파크 도서관 함지원,대구광역시,북구,작은도서관,일+법정공휴일,13:00,18:00,13:00,16:00,00:00,00:00,10,2300,0,0,0,0,"대구광역시 북구 구암로65길 9(구암동,화성그랜드파크)",,053-324-6935,,70.0,,35.93931668,128.566466,2022-11-23,3450000,대구광역시 북구
화성센트럴파크 도서관,대구광역시,북구,작은도서관,토+일+법정공휴일,14:00,16:00,00:00,00:00,00:00,00:00,22,8410,6,0,0,0,"대구광역시 북구 대천로 100(동천동,화성센트럴파크)",,053-281-0952,,108.0,,35.93503621,128.559968,2022-11-23,3450000,대구광역시 북구
안성시 진사도서관,경기도,안성시,공공도서관,1)매주월요일 2)국가지정공휴일,09:00,22:00,09:00,22:00,00:00,23:59,125,95236,45,1648,10,14,경기도 안성시 공도읍 진사2길 70,경기도 안성시,031-678-4090,7240.0,1526.0,http://www.anseong.go.kr/library,,,2023-03-21,4080000,경기도 안성시
안성시 일죽도서관,경기도,안성시,공공도서관,1)매주일요일 2)국가지정공휴일,09:00,19:00,09:00,19:00,00:00,23:59,50,46650,41,886,10,14,경기도 안성시 일죽면 금일로 433,경기도 안성시,031-671-3230,3188.0,1271.0,http://www.anseong.go.kr/library,,,2023-03-21,4080000,경기도 안성시
안성시 아양도서관,경기도,안성시,공공도서관,1)매주금요일 2)국가지정공휴일,09:00,22:00,09:00,22:00,00:00,23:59,166,60048,55,772,10,14,경기도 안성시 아양로 88,경기도 안성시,031-678-0730,2400.0,2764.0,http://www.anseong.go.kr/library,,,2023-03-21,4080000,경기도 안성시
송정작은도서관,경기도,안성시,작은도서관,1)매주일요일 2)국가지정공휴일,10:00,19:00,10:00,19:00,00:00,23:59,44,16964,12,637,10,14,경기도 안성시 공도읍 양기길 46,경기도 안성시,031-618-0064,,164.0,http://www.anseong.go.kr/library,,,2023-03-21,4080000,경기도 안성시
부영작은도서관,경기도,안성시,작은도서관,1)매주일요일 2)국가지정공휴일,10:00,19:00,10:00,19:00,00:00,23:59,25,15424,13,144,10,14,경기도 안성시 공도읍 만수로 31,경기도 안성시,031-618-0089,,88.0,http://www.anseong.go.kr/library,,,2023-03-21,4080000,경기도 안성시
풍림작은도서관,경기도,안성시,작은도서관,1)매주일요일 2)국가지정공휴일,10:00,19:00,10:00,19:00,00:00,23:59,46,23306,21,449,10,14,경기도 안성시 공도읍 서동대로 4079,경기도 안성시,031-618-0062,,169.0,http://www.anseong.go.kr/library,,,2023-03-21,4080000,경기도 안성시
태산작은도서관,경기도,안성시,작은도서관,1)매주일요일 2)국가지정공휴일,10:00,19:00,10:00,19:00,00:00,23:59,30,13478,13,557,10,14,경기도 안성시 공도읍 벚꽃길 36,경기도 안성시,031-618-0084,,77.0,http://www.anseong.go.kr/library,,,2023-03-21,4080000,경기도 안성시
죽산작은도서관,경기도,안성시,작은도서관,1)매주일요일 2)국가지정공휴일,10:00,19:00,10:00,19:00,00:00,23:59,60,24494,13,403,10,14,경기도 안성시 죽산면 중부길 41,경기도 안성시,031-677-7941,,365.0,http://www.anseong.go.kr/library,,,2023-03-21,4080000,경기도 안성시
참새미작은도서관,경상남도,거제시,작은도서관,토+일+공휴일,09:00,18:00,00:00,00:00,00:00,00:00,16,6412,0,0,3,14,경상남도 거제시 거제면 동상3길 26,경상남도 거제시 거제면주민자치센터,055-632-6452,1841.0,110.0,https://lib.geoje.go.kr,34.85109247,128.596057,2022-11-21,5370000,경상남도 거제시
힐나눔작은도서관,경상남도,거제시,작은도서관,토+일+공휴일,09:00,18:00,00:00,00:00,00:00,00:00,30,1530,0,0,0,0,경상남도 거제시 제산로 51,경상남도 거제시 힐스테이트입주자대표회,055-637-8201,36044.0,70.0,https://lib.geoje.go.kr,34.890039,128.6411267,2022-11-21,5370000,경상남도 거제시
덕산아내프리미엄1차아파트작은도서관,경상남도,거제시,작은도서관,월+공휴일,16:00,22:00,16:00,22:00,00:00,00:00,40,11244,0,0,5,7,경상남도 거제시 아주로 100-10 (덕산아내프리미엄1차),경상남도 거제시 덕산아내프리미엄1차아파트입주자대표회,055-681-9766,31675.0,142.0,https://lib.geoje.go.kr,34.86643348,128.6849359,2022-11-21,5370000,경상남도 거제시
파라미타작은도서관,경상남도,거제시,작은도서관,토+일+공휴일,09:00,18:00,00:00,00:00,00:00,00:00,20,1202,0,0,0,0,경상남도 거제시 계룡로 2길 69-1,사단법인 좋은벗,055-681-2679,255.0,66.0,https://lib.geoje.go.kr,34.879448,128.6264279,2022-11-21,5370000,경상남도 거제시
덕산아내프리미엄2차아파트작은도서관,경상남도,거제시,작은도서관,토+일+공휴일,09:00,18:00,00:00,00:00,00:00,00:00,16,6068,0,0,10,14,경상남도 거제시 아주로 100-11 (덕산아내프리미엄2차),경상남도 거제시 덕산아내프리미엄2차아파트입주자대표회,055-681-2679,22363.0,51.0,https://lib.geoje.go.kr,34.86690134,128.6832833,2022-11-21,5370000,경상남도 거제시
벽산3차새마을작은도서관,경상남도,거제시,작은도서관,토+일+공휴일,14:00,23:00,00:00,00:00,00:00,00:00,45,5522,0,0,3,7,경상남도 거제시 상동5길 117-50,경상남도 거제시 벽산e-솔렌스힐 3차아파트입주자대표회,055-637-2500,27464.0,144.0,https://lib.geoje.go.kr,34.85852366,128.6345179,2022-11-21,5370000,경상남도 거제시
벽산-e솔렌스힐2차작은도서관,경상남도,거제시,작은도서관,토+일+공휴일,09:00,18:00,00:00,00:00,00:00,00:00,24,5700,0,0,5,7,경상남도 거제시 상동5길 117-16,경상남도 거제시 벽산e-솔렌스힐 2차아파트입주자대표회,055-632-7066,26337.0,92.0,https://lib.geoje.go.kr,34.86059289,128.6307668,2022-11-21,5370000,경상남도 거제시
e편한세상옥포아파트작은도서관,경상남도,거제시,작은도서관,일+공휴일,16:00,22:00,16:00,22:00,00:00,00:00,12,2472,0,0,5,7,경상남도 거제시 성산로 33,경상남도 거제시 e편한세상 옥포아파트입주자 대표회,055-687-3226,40884.0,82.0,https://lib.geoje.go.kr,34.89811443,128.6953232,2022-11-21,5370000,경상남도 거제시
성광우방타운 주민도서실,대구광역시,북구,작은도서관,월+수+금+토+일+법정공휴일,18:30,21:30,00:00,00:00,00:00,00:00,24,4800,0,0,0,0,"대구광역시 북구 호암로 20(칠성동2가,성광우방타운)",,053-357-0698,,125.0,,35.88266282,128.592027,2022-11-23,3450000,대구광역시 북구
영산도서관,경상남도,창녕군,공공도서관,월요일+법정공휴일,09:00,18:00,09:00,18:00,09:00,18:00,178,31331,28,3080,3,14,경상남도 창녕군 영산면 원다리길 34,경상남도 창녕군,055-530-1931,6500.0,594.0,https://www.cng.go.kr/ysl.web,35.45273826,128.5305123,2022-06-14,6480000,경상남도
석적도서관,경상북도,칠곡군,공공도서관,월+국가지정 공휴일,09:00,22:00,09:00,22:00,00:00,00:00,130,75358,0,1200,5,14,경상북도 칠곡군 북삼읍 인평2길 1,경상북도 칠곡군청,054-979-5985,2166.0,423.0,http://library.chilgok.go.kr,36.06276438,128.3418267,2023-06-30,5220000,경상북도 칠곡군
동명작은도서관,경상북도,칠곡군,작은도서관,일+월+국가지정 공휴일,10:00,17:00,10:00,17:00,00:00,00:00,78,9955,0,0,5,14,경상북도 칠곡군 동명면 금암중앙길 56,경상북도 칠곡군청,054-974-8219,266.5,266.5,http://library.chilgok.go.kr,35.9838996882,128.5538964123,2023-06-30,5220000,경상북도 칠곡군
약목작은도서관,경상북도,칠곡군,작은도서관,토+일+국가지정 공휴일,10:00,17:00,00:00,00:00,00:00,00:00,85,7538,0,0,5,14,경상북도 칠곡군 약목면 복성1길 15,경상북도 칠곡군청,054-975-7950,261.0,261.0,http://library.chilgok.go.kr,36.0324887848,128.363386969,2023-06-30,5220000,경상북도 칠곡군
증평군립도서관,충청북도,증평군,공공도서관,매주월요일+국가지정공휴일+설날연휴+추석연휴,09:00,22:00,09:00,18:00,00:00,00:00,651,83582,42,6472,3,14,충청북도 증평군 증평읍 광장로 37,충청북도 증평군청,043-835-4684,3020.0,2917.0,http://lib.jp.go.kr/,36.78951068,127.5796628,2023-07-05,5570000,충청북도 증평군
인천광역시교육청계양도서관,인천광역시,계양구,공공도서관,매주 화요일/국가지정공휴일,06:00,22:00,06:00,22:00,06:00,22:00,606,218609,101,28617,10,15,인천광역시 계양구 계양산로134번길 18 (계산동),인천광역시교육청,032-540-4400,5500.0,6059.0,https://lib.ice.go.kr/gyeyang/index.do,37.54600361,126.7301101,2023-07-05,7310508,인천광역시교육청 인천광역시교육청계양도서관
인천광역시교육청연수도서관,인천광역시,연수구,공공도서관,매주 수요일+법정공휴일,06:00,22:00,06:00,17:00,06:00,22:00,743,244147,118,29520,10,14,인천광역시 연수구 함박뫼로 152번길 96(연수동),인천광역시교육청,032-899-7500,6354.0,5343.0,https://lib.ice.go.kr/yeonsu,37.41791595,126.6853266,2023-07-06,7310509,인천광역시교육청 인천광역시교육청연수도서관
구의제3동도서관,서울특별시,광진구,공공도서관,둘째 주 월+넷째 주 월+공휴일,09:00,20:00,09:00,18:00,00:00,00:00,64,26514,4,0,5,14,서울특별시 광진구 강변역로 17(구의동),광진구시설관리공단,02-454-6294,,305.0,http://www.gwangjinlib.seoul.kr/,37.53799261,127.091984,2023-07-05,3040000,서울특별시 광진구
군자동도서관,서울특별시,광진구,공공도서관,첫째 주 화+셋째 주 화+공휴일,09:00,20:00,09:00,18:00,00:00,00:00,60,12245,14,0,5,14,"서울특별시 광진구 면목로 13,군자동복합청사 1층",광진구시설관리공단,02-2049-2960,,407.0,http://www.gwangjinlib.seoul.kr/,37.55553622,127.0754659,2023-07-05,3040000,서울특별시 광진구
중곡1동새마을작은도서관,서울특별시,광진구,작은도서관,토+일+공휴일,09:00,17:00,00:00,00:00,00:00,00:00,30,12237,0,0,3,7,서울특별시 광진구 긴고랑로12길 49(중곡동),,02-461-9058,,,,37.56066681,127.0800508,2023-07-05,3040000,서울특별시 광진구
중곡2동새마을작은도서관,서울특별시,광진구,작은도서관,토+일+공휴일,09:00,17:00,00:00,00:00,00:00,00:00,14,7065,0,0,3,7,서울특별시 광진구 능동로 346(중곡동),,02-458-7036,,,,37.56015047,127.0814764,2023-07-05,3040000,서울특별시 광진구
중곡3동새마을작은도서관,서울특별시,광진구,작은도서관,토+일+공휴일,09:30,17:30,00:00,00:00,00:00,00:00,28,3932,0,0,3,7,서울특별시 광진구 동일로76가길 28(중곡동),,02-462-4916,,,,37.56880816,127.0801365,2023-07-05,3040000,서울특별시 광진구
새너울중학교 도서관,충청북도,영동군,학교도서관,토요일+일요일+공휴일,09:00,16:00,00:00,00:00,00:00,00:00,24,5348,0,0,2,7,충청북도 영동군 황간면 황간로 66,충청북도 영동군 새너울중학교,043-740-0323,135.0,135.0,,36.23094344,127.9087523,2022-06-16,4440000,충청북도 영동군
심천중학교 도서관,충청북도,영동군,학교도서관,토요일+일요일+공휴일,08:30,16:30,00:00,00:00,00:00,00:00,36,6123,0,0,2,7,충청북도 영동군 심천면 초강로 143,충청북도 영동군 심천중학교,043-742-6082,180.0,180.0,,36.22008398,127.7135686,2022-06-16,4440000,충청북도 영동군
영신중학교 도서관,충청북도,영동군,학교도서관,토요일+일요일+공휴일,09:00,17:00,00:00,00:00,00:00,00:00,36,11686,0,0,2,7,충청북도 영동군 영동읍 영동황간로 22,충청북도 영동군 영신중학교,043-742-3851,,147.6,,36.16900834,127.7748399,2022-06-16,4440000,충청북도 영동군
정수중학교 도서관,충청북도,영동군,학교도서관,토요일+일요일+공휴일,09:00,16:30,00:00,00:00,00:00,00:00,20,5908,0,40,2,7,충청북도 영동군 양산면 송호로1길56,충청북도 영동군 정수중학교,043-744-8079,,55.0,,36.12676451,127.6780589,2022-06-16,4440000,충청북도 영동군
추풍령중학교도서관,충청북도,영동군,학교도서관,토요일+일요일+공휴일,08:20,16:30,00:00,00:00,00:00,00:00,30,9747,0,0,3,14,충청북도 영동군 추풍령면 신안로 106,충청북도 영동군 추풍령중학교,043-742-2881,159095.0,2838.0,,36.21774616,128.0027118,2022-06-16,4440000,충청북도 영동군
구룡초등학교 도담도서관,충청북도,영동군,학교도서관,토요일+일요일+공휴일,09:00,17:00,00:00,00:00,00:00,00:00,24,11246,3,22,3,7,충청북도 영동군 용산면 용산로 366,충청북도 영동군 구룡초등학교,043-742-9010,,198.0,,36.26402003,127.8280072,2022-06-16,4440000,충청북도 영동군
매곡초등학교 매화골 도서관,충청북도,영동군,학교도서관,토요일+일요일+공휴일,08:40,16:40,00:00,00:00,00:00,00:00,28,5945,0,28,2,14,충청북도 영동군 매곡면 민주지산로 3609,충청북도 영동군 매곡초등학교,043-743-2181,120.0,11181.0,,36.1927206,127.9325944,2022-06-16,4440000,충청북도 영동군
부용초등학교 부용햇살글마을,충청북도,영동군,학교도서관,토요일+일요일+공휴일,09:00,17:00,00:00,00:00,00:00,00:00,57,15042,0,50,2,7,충청북도 영동군 영동급 학산영동로 1155,충청북도 영동군 부용초등학교,043-742-0031,,130.0,,36.1672741,127.7671267,2022-06-16,4440000,충청북도 영동군
상촌초등학교 도서관,충청북도,영동군,학교도서관,토요일+일요일+공휴일,08:40,16:40,00:00,00:00,00:00,00:00,22,7277,0,0,3,7,충청북도 영동군 상촌면 임산 2길 20,충청북도 영동군 상촌초등학교,043-743-3516,99.0,99.0,,36.14761312,127.9120911,2022-06-16,4440000,충청북도 영동군
양강초등학교도서실,충청북도,영동군,학교도서관,토요일+일요일+공휴일,08:40,17:00,00:00,00:00,00:00,00:00,30,12106,0,88,2,7,충청북도 영동군 양강면 학산영동로817,충청북도 영동군 양강초등학교,043-744-2827,135.0,135.0,,36.14516473,127.7474976,2022-06-16,4440000,충청북도 영동군
양산초등학교 비봉글샘터,충청북도,영동군,학교도서관,토요일+일요일+공휴일,08:40,17:00,00:00,00:00,00:00,00:00,16,7901,0,24,3,7,충청북도 영동군 양산면 금강로 1500,충청북도 영동군 양산초등학교,043-743-9218,141.75,141.75,,36.1246393,127.6663507,2022-06-16,4440000,충청북도 영동군
영동초등학교 도서관,충청북도,영동군,학교도서관,토요일+일요일+공휴일,08:30,16:30,00:00,00:00,00:00,00:00,40,15499,7,187,3,7,충청북도 영동군 영동읍 영동촌 2길 47,충청북도 영동군 영동초등학교,043-742-3672,346.4,346.4,,36.4252531,125.7913417,2022-06-16,4440000,충청북도 영동군
용화초등학교,충청북도,영동군,학교도서관,토요일+일요일+공휴일,09:00,17:00,00:00,00:00,00:00,00:00,23,11881,2,91,2,3,충청북도 영동군 용화면 용화양강로 32,충청북도 영동군 용화초등학교,043-743-7009,224.0,109.0,,36.02359338,127.765981,2022-06-16,4440000,충청북도 영동군
이수초등학교도서관,충청북도,영동군,학교도서관,토요일+일요일+공휴일,09:00,17:00,00:00,00:00,00:00,00:00,67,18446,2,247,3,7,충청북도 영동군 영동읍 영산로 4길 9,충청북도 영동군 이수초등학교,043-744-0140,218.0,2191.32,,36.17745821,127.7766024,2022-06-16,4440000,충청북도 영동군
천년나무꿈작은도서관,광주광역시,남구,작은도서관,연중무휴,09:00,22:00,09:00,22:00,09:00,22:00,13,2089,0,0,3,7,광주광역시 남구 효우2로 20,효천LH천년나무2단지,062-674-0597,,57.74,,35.10266055,126.8897524,2022-05-13,3610000,광주광역시 남구
천년뜨락작은도서관,광주광역시,남구,작은도서관,토+공휴일,09:00,18:00,00:00,00:00,00:00,00:00,16,2280,0,0,3,7,광주광역시 남구 효우2로 21,효천LH천년나무3단지,062-674-9951,,90.54,,35.1013917,126.8892725,2022-05-13,3610000,광주광역시 남구
스타힐스작은도서관,대구광역시,북구,작은도서관,토+일+법정공휴일,10:00,17:00,00:00,00:00,00:00,00:00,20,3000,0,0,5,14,"대구광역시 북구 내곡로 70(사수동, 대구금호스타힐스엔에이치에프6단지)",,053-311-3939,,84.47,,35.90121933,128.5124077,2022-11-23,3450000,대구광역시 북구
아름다운작은도서관,대구광역시,북구,작은도서관,토+일+법정공휴일,10:00,18:00,00:00,00:00,00:00,00:00,15,2300,0,0,0,0,대구광역시 북구 중앙대로105길 27(칠성동2가),,053-353-4333,,39.6,,35.88050142,128.592717,2022-11-23,3450000,대구광역시 북구
연경숲 작은도서관,대구광역시,북구,작은도서관,화+목+금+토+일+법정공휴일,13:00,15:00,00:00,00:00,00:00,00:00,8,1000,0,0,3,7,"대구광역시 북구 연경중앙로 55(연경동,대구연경연경숲)",,053-290-9900,,71.92,,35.9489134232,128.6154505787,2022-11-23,3450000,대구광역시 북구
열린 작은도서관,대구광역시,북구,작은도서관,토+일+법정공휴일,13:00,18:00,00:00,00:00,00:00,00:00,10,1500,0,0,0,0,대구광역시 북구 구리로38길 3-8(국우동),,,,62.85,,35.947854,128.575728,2022-11-23,3450000,대구광역시 북구
예미지숲속의아침작은도서관,대구광역시,북구,작은도서관,토+일+법정공휴일,13:00,17:00,00:00,00:00,00:00,00:00,28,4300,0,5,0,0,"대구광역시 북구 연경중앙로11(연경동,연경금성백조예미지숲속의아침)",,053-985-3338,,90.0,,35.94341036,128.6152588,2022-11-23,3450000,대구광역시 북구
은광작은도서관,대구광역시,북구,작은도서관,일+법정공휴일,14:00,18:00,14:00,18:00,00:00,00:00,10,1600,0,0,0,0,대구광역시 북구 동화천로 205(연경동),,053-314-7379,,43.2,,35.926511,128.542153,2022-11-23,3450000,대구광역시 북구
이편한세상대구금호작은도서관,대구광역시,북구,작은도서관,연중무휴,09:00,23:00,09:00,23:00,09:00,23:00,39,1299,0,0,0,0,"대구광역시 북구 내곡로 49(사수동,이편한세상대구금호)",,053-313-9002,,141.37,,35.90104211,128.5088743,2022-11-23,3450000,대구광역시 북구
응암정보도서관,서울특별시,은평구,공공도서관,"금요일,법정공휴일",09:00,22:00,09:00,18:00,09:00,18:00,250,60887,171,10771,5,14,서울특별시 은평구 가좌로 7길 15,대한성결교회 유지재단,02-308-2320,877.0,999.0,http://www.ealib.or.kr/,37.58596,126.9196809,2021-04-01,3110000,서울특별시 은평구
상림마을작은도서관,서울특별시,은평구,공공도서관,"월요일,법정공휴일",09:00,18:00,09:00,18:00,09:00,18:00,70,34755,49,657,5,14,서울특별시 은평구 진관4로 48-25,사회복지법인 인덕원,02-838-7557,,306.0,http://www.eplib.or.kr/,37.64422,126.92894,2021-04-01,3110000,서울특별시 은평구
은평뉴타운 도서관,서울특별시,은평구,공공도서관,"금요일,법정공휴일",09:00,22:00,09:00,18:00,09:00,18:00,420,56695,123,2404,5,14,서울특별시 은평구 진관2로 111-51,사회복지법인 인덕원,02-6341-6400,1323.0,2040.0,http://www.enlib.or.kr/,37.63724,126.93313,2021-04-01,3110000,서울특별시 은평구
구산동 도서관마을,서울특별시,은평구,공공도서관,"월요일,법정공휴일",09:00,22:00,09:00,18:00,09:00,18:00,350,67936,131,2466,5,14,서울특별시 은평구 연서로 13길 29-23,은평도서관마을 협동조합,02-357-0100,1572.0,2550.0,http://www.gsvlib.or.kr/,37.60950866,126.91307,2021-04-01,3110000,서울특별시 은평구
내를건너서숲으로도서관,서울특별시,은평구,공공도서관,"월요일,법정공휴일",09:00,22:00,09:00,18:00,09:00,18:00,170,40250,59,363,5,14,서울특별시 은평구 증산로17길 51,사단법인더불어배움,02-307-6701,1200.0,1982.0,http://www.nslib.or.kr,37.591414,126.907816,2021-04-01,3110000,서울특별시 은평구
은뜨락도서관,서울특별시,은평구,공공도서관,"월요일,법정공휴일",09:00,22:00,09:00,18:00,09:00,18:00,188,21569,36,228,5,14,서울특별시 은평구 통일로 972,재단법인횃불장학회,02-389-7635,,1075.0,https://www.edlib.or.kr,37.63013936,126.9199312,2021-04-01,3110000,서울특별시 은평구
은평작은도서관,서울특별시,은평구,작은도서관,"토,일요일 법정공휴일",09:00,18:00,00:00,00:00,00:00,00:00,14,11751,0,0,3,14,서울특별시 은평구 은평로 195 (은평구청 1층),,02-351-8461,,,,37.60217556,126.9293379,2021-04-01,3110000,서울특별시 은평구
녹번만화도서관,서울특별시,은평구,작은도서관,매주월요일,09:00,18:00,09:00,18:00,09:00,18:00,35,3955,1,0,0,0,서울특별시 은평구 은평로 245,,02-356-1676,,,,37.60106842,126.9349099,2021-04-01,3110000,서울특별시 은평구
다섯콩작은도서관,서울특별시,은평구,작은도서관,"월요일,     법정공휴일",11:00,19:00,11:00,17:00,11:00,17:00,42,12160,10,58,5,15,서울특별시 은평구 서오릉로4길 10. 성암비전센터 2층,,02-384-1184,,,,37.6049120162,126.9258394509,2021-04-01,3110000,서울특별시 은평구
어린이도서관 동네북,서울특별시,은평구,작은도서관,일요일,13:00,18:00,11:00,17:00,11:00,16:00,50,13282,2,200,5,14,서울특별시 은평구 진흥로 174?(녹번동) 양광비젼센터2층,,,,,,,,2021-04-01,3110000,서울특별시 은평구
Book Bridge 작은 도서관,서울특별시,은평구,작은도서관,"매주 월, 수",10:00,15:00,00:00,00:00,00:00,00:00,7,5500,2,19,2,14,서울특별시 은평구 통일로 590 B동 204호,,,,,,37.59957186,126.9368368,2021-04-01,3110000,서울특별시 은평구
북한산 힐스테이트  1차 솔숲작은도서관,서울특별시,은평구,작은도서관,일요일 법정공휴일,10:00,18:00,10:00,12:00,14:00,18:00,36,5760,3,0,2,7,서울특별시 은평구 불광로2길 33 1110동 지하 주차장1층,,02-356-4620,,,,37.6124894528,126.935680407,2021-04-01,3110000,서울특별시 은평구
재궁꿈나무도서관,경기도,군포시,작은도서관,토+일+법정공휴일,09:00,18:00,00:00,00:00,00:00,00:00,50,15478,0,0,5,14,경기도 군포시 번영로550번길 25,재궁동주민자치위원회,031-428-4560,,113.4,,37.3584390943,126.9390401695,2023-06-26,4020000,경기도 군포시
주품북까페,경기도,군포시,작은도서관,월+목+법정휴일,10:00,14:00,10:00,14:00,00:00,00:00,60,2327,0,0,3,7,경기도 군포시 군포로464번길 24,주품교회,070-8692-8291,,198.0,,37.3474117,126.9459444,2023-06-27,4020000,경기도 군포시
채움작은도서관,경기도,군포시,작은도서관,토+일+법정공휴일,09:00,18:00,00:00,00:00,00:00,00:00,34,2369,0,0,3,14,"경기도 군포시 고산로 263, 1층",군포2동 주민자치회,031-391-8694,,162.6,,37.3463469613,126.9430800198,2023-06-27,4020000,경기도 군포시
책놀이터작은도서관,경기도,군포시,작은도서관,토+일+법정공휴일,13:00,18:00,00:00,00:00,00:00,00:00,20,7776,5,0,3,7,경기도 군포시 삼성로 31,아파트입주자대표위,031-399-1103,,109.0,,37.3376796,126.9301936,2023-06-27,4020000,경기도 군포시
큰꿈작은도서관,경기도,군포시,작은도서관,일+법정휴일,11:00,18:00,13:00,18:00,00:00,00:00,25,5966,3,0,3,7,"경기도 군포시 송부로 36, 백산프라자 403호",큰교회,031-406-0243,,188.0,,37.3156089046,126.9184604944,2023-06-27,4020000,경기도 군포시
